dbn,school_name,Borough,grade_span,Latitude,Longitude,Total.Tested_Common.Core.Algebra,Mean.Score_Common.Core.Algebra,Percent.Students.Took.The.Test.For.CCAlgebra,Total.Tested_Common.Core.Algebra2,Mean.Score_Common.Core.Algebra2,Percent.Students.Took.The.Test.For.CCAlgebra2,Total.Tested_Common.Core.Geometry,Mean.Score_Common.Core.Geometry,Percent.Students.Took.The.Test.For.CCGeometry,Total.Tested_Living.Environment,Mean.Score_Living.Environment,Percent.Students.Took.The.Test.For.LE,Total.Tested_Physical.Settings.Earth.Science,Mean.Score_Physical.Settings.Earth.Science,Percent.Students.Took.The.Test.For.ES,Total.Tested_Physical.Settings.Chemistry,Mean.Score_Physical.Settings.Chemistry,Percent.Students.Took.The.Test.For.Chemistry,Total.Tested_Physical.Settings.Physics,Mean.Score_Physical.Settings.Physics,Percent.Students.Took.The.Test.For.Physics,Mbps.Bandwidth,Full.Time.Certified.STEM.Teachers,Part.Time.Certified.STEM.Teachers,Ratio.of.Full.Time.Licensed.STEM.Teachers.to.Students,Number.of.CS.Courses,Number.of.AP.CS.Courses,number.of.Full.CS.Courses,number.of.Partial.CS.Courses,Total.Teacher.Response.Rate,Percent.of.STEMTeachers.That.Agree.With.17a,Percent.of.STEMTeachers.That.Agree.With.17b,Percent.of.STEMTeachers.That.Agree.With.17c,K.12.Enrollment_2017.18,K.12.FRPL.Count_2017.18,Classroom.Teachers.w..0.3.Years.Experience_2017.18,Classroom.Teachers.w..More.than.3.Years.Experience_2017.18,Classroom.Teachers_2017.18,Total.School.Funding.per.Pupil_2017.18,School_Type,Percent.Poverty,STEM_AP_Courses_Offered,club_number
01M292,Orchard Collegiate Academy,MANHATTAN,7 to 12,40.713684,-73.986336,41,64.5,0.239766082,3,NA,0.01754386,18,62.2,0.105263158,84,68.2,0.49122807,53,57.2,0.30994152,NA,NA,NA,NA,NA,NA,100,4,0,0.023391813,NA,NA,NA,NA,1,NA,NA,NA,171,156,6,13,1562510,28806.74,High School,0.918,1,1
01M448,University Neighborhood High School,MANHATTAN,9 to 12,40.712399,-73.984497,149,68.8,0.320430108,67,67.3,0.144086022,120,63.6,0.258064516,132,69.8,0.283870968,114,65.6,0.24516129,52,66.2,0.111827957,NA,NA,NA,100,9,0,0.019354839,5,1,3,2,1,1,1,1,465,406,18,12,2530886,21152.28,High School,0.892,0,0
01M450,East Side Community School,MANHATTAN,6 to 12,40.729589,-73.982555,NA,NA,NA,NA,NA,NA,NA,NA,NA,NA,NA,NA,NA,NA,NA,NA,NA,NA,NA,NA,NA,200,13,0,0.019033675,2,1,1,1,0.92,0.95,0.89,0.95,683,442,9,38,4299160,21194.44,High School,0.654,1,0
01M509,Marta Valle High School,MANHATTAN,9 to 12,40.720581,-73.985645,44,56.4,0.297297297,7,62,0.047297297,19,54.5,0.128378378,48,62,0.324324324,NA,NA,NA,2,NA,0.013513514,NA,NA,NA,100,3,0,0.02027027,NA,NA,NA,NA,0.33,NA,NA,NA,148,138,7,6,978691,33702.45,High School,0.932,1,0
01M539,"New Explorations into Science, Technology and Math High School (NEST+m)",MANHATTAN,K to 12,40.718895,-73.979308,NA,NA,NA,NA,NA,NA,NA,NA,NA,NA,NA,NA,NA,NA,NA,NA,NA,NA,NA,NA,NA,100,19,0,0.010957324,3,1,2,1,0.95,0.88,0.8,0.72,1734,395,36,62,7871234,16571.2,High School,0.239,5,1
01M696,Bard High School Early College,MANHATTAN,9 to 12,40.719029,-73.975891,52,73.4,0.088435374,NA,NA,NA,NA,NA,NA,2,NA,0.003401361,NA,NA,NA,131,76,0.222789116,NA,NA,NA,100,11,0,0.018707483,NA,NA,NA,NA,0.78,1,1,1,588,256,5,30,3310321,19169.61,High School,0.44,0,0
02M047, The American Sign Language and English Secondary School,MANHATTAN,9 to 12,40.738548,-73.982455,49,59,0.296969697,30,56.4,0.181818182,31,61,0.187878788,45,64,0.272727273,58,64.9,0.351515152,NA,NA,NA,NA,NA,NA,100,4,0,0.024242424,NA,NA,NA,NA,0.81,0.67,0.33,0.67,165,145,10,7,1688716,29476.31,High School,0.885,1,2
02M135,The Urban Assembly School for Emergency Management,MANHATTAN,9 to 12,40.711442,-74.000851,84,61.3,0.298932384,32,58.6,0.113879004,76,56.3,0.270462633,83,67.2,0.295373665,85,62,0.302491103,NA,NA,NA,NA,NA,NA,100,6,0,0.021352313,NA,NA,NA,NA,1,0.89,0.89,1,281,229,5,19,1846158,24031.41,High School,0.819,1,0
02M139,Stephen T. Mather Building Arts & Craftsmanship High School,MANHATTAN,9 to 12,40.76337,-73.990593,169,63.1,0.42893401,40,50,0.101522843,102,50.6,0.258883249,166,65.1,0.421319797,99,61.4,0.251269036,NA,NA,NA,NA,NA,NA,200,8,0,0.020304569,NA,NA,NA,NA,1,1,1,1,394,330,16,25,2989735,25340.19,High School,0.845,0,0
02M260,"Clinton School Writers & Artists, M.S. 260",MANHATTAN,6 to 12,40.736518,-73.992725,NA,NA,NA,NA,NA,NA,NA,NA,NA,NA,NA,NA,NA,NA,NA,NA,NA,NA,NA,NA,NA,100,11,0,0.018211921,NA,NA,NA,NA,0.58,0.88,0.75,0.88,NA,NA,NA,NA,NA,NA,High School,0.142,0,0
02M280,Manhattan Early College School for Advertising,MANHATTAN,9 to 13,40.711442,-74.000851,131,64.6,0.356948229,34,67.9,0.092643052,61,61.3,0.166212534,93,75.2,0.253405995,NA,NA,NA,83,66.8,0.226158038,NA,NA,NA,100,6,0,0.016348774,1,0,0,1,0.88,0.78,0.89,0.78,367,294,8,22,2704770,21770.58,High School,0.812,0,0
02M282,Urban Assembly Maker Academy,MANHATTAN,9 to 12,40.711442,-74.000851,159,60.1,0.411917098,57,57.6,0.147668394,65,60.6,0.168393782,97,70.8,0.251295337,70,62.8,0.18134715,29,53.9,0.075129534,NA,NA,NA,100,11,0,0.028497409,7,0,0,7,1,1,0.77,1,386,287,15,12,2293038,21041.53,High School,0.754,1,0
02M288,Food and Finance High School,MANHATTAN,9 to 12,40.765184,-73.992953,98,61.3,0.259259259,36,56.9,0.095238095,5,NA,0.013227513,130,63.2,0.343915344,NA,NA,NA,62,50.7,0.164021164,NA,NA,NA,200,7,0,0.018518519,NA,NA,NA,NA,0.47,NA,NA,NA,378,333,5,23,2773162,23257.85,High School,0.886,0,0
02M294,Essex Street Academy,MANHATTAN,9 to 12,40.716778,-73.989337,1,NA,0.002941176,NA,NA,NA,NA,NA,NA,NA,NA,NA,NA,NA,NA,NA,NA,NA,NA,NA,NA,100,8,0,0.023529412,1,1,1,0,0.96,1,1,1,340,234,2,24,2307602,22838.34,High School,0.703,1,0
02M296,High School of Hospitality Management,MANHATTAN,9 to 12,40.765184,-73.992953,123,64.3,0.314578005,14,62.5,0.035805627,20,53.9,0.051150895,84,66.6,0.21483376,92,57.6,0.235294118,27,51.2,0.069053708,NA,NA,NA,200,8,0,0.020460358,1,0,1,0,0.57,1,0.86,1,391,359,7,20,2359637,22224.25,High School,0.923,0,1
02M298,Pace High School,MANHATTAN,9 to 12,40.716553,-73.993092,167,65.7,0.310986965,76,60.8,0.141527002,127,55.6,0.236499069,160,69,0.297951583,52,61.6,0.096834264,87,60,0.162011173,8,66.3,0.014897579,200,12,0,0.022346369,NA,NA,NA,NA,0.95,0.9,0.67,0.9,537,425,7,32,3287794,20239.82,High School,0.81,3,1
02M300,"Urban Assembly School of Design and Construction, The",MANHATTAN,9 to 12,40.765184,-73.992953,80,58.2,0.224719101,56,54.3,0.157303371,77,53.4,0.216292135,77,59.7,0.216292135,44,59.7,0.123595506,NA,NA,NA,40,56.7,0.112359551,200,6,0,0.016853933,NA,NA,NA,NA,1,1,0.88,1,356,306,10,14,1586564,22840.17,High School,0.865,1,NA
02M303,"Facing History School, The",MANHATTAN,9 to 12,40.765184,-73.992953,NA,NA,NA,NA,NA,NA,NA,NA,NA,NA,NA,NA,NA,NA,NA,NA,NA,NA,NA,NA,NA,200,10,0,0.02617801,1,0,0,1,1,1,0.92,0.92,382,310,10,22,2295056,24462.28,High School,0.827,1,0
02M305,"Urban Assembly Academy of Government and Law, The",MANHATTAN,9 to 12,40.716778,-73.989337,102,64.9,0.332247557,16,61.7,0.052117264,58,59.2,0.188925081,103,66.9,0.335504886,75,69.3,0.244299674,6,63.3,0.019543974,NA,NA,NA,100,6,0,0.019543974,NA,NA,NA,NA,0.84,0.88,0.88,1,307,260,12,13,1776310,21666.16,High School,0.87,0,0
02M308,Lower Manhattan Arts Academy,MANHATTAN,9 to 12,40.716778,-73.989337,127,63.7,0.386018237,15,56.3,0.045592705,24,58.5,0.072948328,85,68.6,0.258358663,27,68,0.082066869,14,62.6,0.042553191,NA,NA,NA,100,8,0,0.024316109,NA,NA,NA,NA,0.93,0.92,1,0.92,329,242,7.7,19,2019782,25874.57,High School,0.757,0,0
02M316,"Urban Assembly School of Business for Young Women, The",MANHATTAN,9 to 12,40.70568,-74.013302,93,53.2,0.400862069,10,49.3,0.043103448,35,40.7,0.150862069,51,58.3,0.219827586,37,49.6,0.159482759,12,40.7,0.051724138,NA,NA,NA,100,4,0,0.017241379,NA,NA,NA,NA,0.89,NA,NA,NA,232,191,8,7,1045295,22264.43,High School,0.841,1,0
02M374,Gramercy Arts High School,MANHATTAN,9 to 12,40.735494,-73.987659,125,63.6,0.254582485,43,67.4,0.087576375,110,60,0.224032587,123,66.8,0.250509165,NA,NA,NA,61,55.1,0.124236253,7,54.9,0.014256619,200,7,0,0.014256619,NA,NA,NA,NA,0.92,1,1,1,491,402,12,22,2730621,20063.57,High School,0.829,2,0
02M376,NYC iSchool,MANHATTAN,9 to 12,40.7244,-74.004625,73,81.4,0.159737418,NA,NA,NA,6,81,0.013129103,84,81.9,0.18380744,NA,NA,NA,NA,NA,NA,NA,NA,NA,200,11,0,0.024070022,NA,NA,NA,NA,0.97,0.91,0.82,0.82,457,180,4,26,2802327,19425.75,High School,0.405,2,2
02M392,Manhattan Business Academy,MANHATTAN,9 to 12,40.742867,-74.002136,162,62.6,0.382978723,27,61.1,0.063829787,36,63.7,0.085106383,126,68.2,0.29787234,111,59.3,0.262411348,27,54.7,0.063829787,NA,NA,NA,200,8,0,0.01891253,NA,NA,NA,NA,1,0.9,0.8,0.9,423,381,15,18,2629151,22314.21,High School,0.91,2,0
02M393,Business of Sports School (BOSS),MANHATTAN,9 to 12,40.76337,-73.990593,190,59.7,0.44600939,21,57.1,0.049295775,163,50.7,0.382629108,143,65.5,0.335680751,89,61.7,0.208920188,48,50.5,0.112676056,NA,NA,NA,200,9,0,0.021126761,NA,NA,NA,NA,0.84,1,1,1,426,312,10,28,2980413,23994.66,High School,0.744,1,0
02M399,The High School For Language And Diplomacy,MANHATTAN,9 to 12,40.735494,-73.987659,104,60.1,0.318042813,59,59.5,0.180428135,101,54.3,0.308868502,79,64.3,0.241590214,42,52.6,0.128440367,17,65.4,0.051987768,NA,NA,NA,200,6,0,0.018348624,NA,NA,NA,NA,0.46,NA,NA,NA,327,253,11,14,1570400,22416.12,High School,0.792,2,0
02M400,High School for Environmental Studies,MANHATTAN,9 to 12,40.767791,-73.987531,382,62.8,0.319932998,117,73.6,0.09798995,231,64,0.193467337,320,67.7,0.2680067,121,64.6,0.101340034,122,59.3,0.102177554,43,58,0.0360134,200,20,0,0.016750419,5,1,4,1,0.85,1,0.83,0.92,1194,967,15,57,6063657,19374.34,High School,0.821,5,0
02M407,Institute for Collaborative Education (ICE),MANHATTAN,6 to 12,40.732447,-73.983031,NA,NA,NA,NA,NA,NA,NA,NA,NA,NA,NA,NA,NA,NA,NA,NA,NA,NA,NA,NA,NA,200,9,0,0.018292683,NA,NA,NA,NA,0.56,NA,NA,NA,492,123,8,17,2132138,16538.45,High School,0.262,0,NA
02M408,Professional Performing Arts High School (PPAS),MANHATTAN,6 to 12,40.761448,-73.988019,NA,NA,NA,NA,NA,NA,NA,NA,NA,NA,NA,NA,NA,NA,NA,NA,NA,NA,NA,NA,NA,100,8,0,0.014159292,NA,NA,NA,NA,0.79,0.86,0.86,1,565,206,5.6,23,2729579,19064.49,High School,0.379,1,1
02M411,Baruch College Campus High School,MANHATTAN,9 to 12,40.74193,-73.986521,15,80.3,0.032608696,111,78.6,0.241304348,184,74.3,0.4,122,85.2,0.265217391,82,87.3,0.17826087,28,75,0.060869565,1,NA,0.002173913,100,9,0,0.019565217,1,0,1,0,1,0.91,0.82,0.91,460,192,5,23,2211513,18680.95,High School,0.426,2,1
02M412,N.Y.C. Lab School for Collaborative Studies,MANHATTAN,9 to 12,40.742129,-74.002198,64,85.2,0.128514056,143,76.4,0.287148594,146,78,0.293172691,112,87.2,0.224899598,NA,NA,NA,125,72,0.251004016,98,68.5,0.196787149,100,11,0,0.022088353,2,2,2,0,0.93,1,0.92,1,498,143,7,36,3650049,25920.15,High School,0.305,2,0
02M413,School of the Future High School,MANHATTAN,6 to 12,40.738952,-73.985479,NA,NA,NA,NA,NA,NA,NA,NA,NA,NA,NA,NA,NA,NA,NA,NA,NA,NA,NA,NA,NA,100,12,0,0.016,5,1,2,3,0.81,1,0.93,1,750,292,11.4,40,4360239,20265.13,High School,0.399,0,1
02M414,N.Y.C. Museum School,MANHATTAN,9 to 12,40.742129,-74.002198,85,73.7,0.188888889,94,76,0.208888889,147,73.6,0.326666667,97,79.8,0.215555556,87,81.6,0.193333333,78,73.7,0.173333333,15,57.5,0.033333333,100,7,0,0.015555556,NA,NA,NA,NA,0.96,0.6,0.8,0.7,450,299,5,20,2544293,19682.07,High School,0.671,4,2
02M416,Eleanor Roosevelt High School,MANHATTAN,9 to 12,40.770187,-73.953608,128,83.3,0.236598891,165,80.9,0.304990758,136,86.7,0.251386322,132,90.8,0.243992606,NA,NA,NA,139,79.1,0.256931608,116,84.8,0.214417745,100,10,0,0.018484288,1,1,1,0,0.94,1,0.89,0.89,541,115,4.5,26,3001795,19278.39,High School,0.222,4,1
02M418,Millennium High School,MANHATTAN,9 to 12,40.704487,-74.011556,106,82.6,0.159159159,156,84.6,0.234234234,165,82.1,0.247747748,171,88.1,0.256756757,NA,NA,NA,155,77.6,0.232732733,3,NA,0.004504505,100,12,2,0.018018018,NA,NA,NA,NA,1,0.93,1,0.93,666,310,3.5,35,3464370,17340.68,High School,0.474,2,0
02M419,Landmark High School,MANHATTAN,9 to 12,40.742867,-74.002136,1,NA,0.002873563,NA,NA,NA,NA,NA,NA,NA,NA,NA,NA,NA,NA,NA,NA,NA,NA,NA,NA,200,8,0,0.022988506,NA,NA,NA,NA,1,0.91,0.82,0.91,348,307,6,21,1989025,22580.25,High School,0.888,0,0
02M420,High School for Health Professions and Human Services,MANHATTAN,9 to 12,40.732447,-73.983031,469,69.9,0.257833975,358,73.5,0.196811435,514,68.9,0.282572842,376,73.4,0.206706982,142,66.5,0.078064871,402,68.4,0.22100055,231,71.3,0.126992853,200,28,0,0.015393073,1,1,1,0,0.94,0.85,0.85,0.78,1819,1281,19,75,8505825,18157.51,High School,0.757,4,1
02M422,Quest to Learn,MANHATTAN,6 to 12,40.742867,-74.002136,NA,NA,NA,NA,NA,NA,NA,NA,NA,NA,NA,NA,NA,NA,NA,NA,NA,NA,NA,NA,NA,200,11,0,0.018771331,1,1,1,0,0.98,1,1,1,586,401,14.9,39,3824842,23153.56,High School,0.684,1,0
02M425,Leadership and Public Service High School,MANHATTAN,9 to 12,40.70873,-74.012332,167,62.5,0.319311663,20,69.1,0.038240918,80,56.3,0.152963671,119,73.2,0.227533461,67,60.4,0.128107075,15,68.7,0.028680688,NA,NA,NA,100,9,0,0.017208413,1,1,1,0,0.84,0.75,0.5,0.63,523,425,6,30,2506291,21289.5,High School,0.836,1,NA
02M427,Manhattan Academy for Arts & Language,MANHATTAN,9 to 12,40.746176,-73.981241,134,58.4,0.498141264,13,66.3,0.048327138,31,47,0.115241636,96,66.8,0.356877323,44,60.8,0.163568773,NA,NA,NA,NA,NA,NA,100,6,0,0.022304833,NA,NA,NA,NA,0.96,0.75,0.75,0.75,269,245,5,18,1634761,25564.16,High School,0.95,1,NA
02M432,Murray Hill Academy,MANHATTAN,9 to 12,40.746176,-73.981241,77,66.1,0.242902208,16,63.3,0.050473186,30,59.2,0.094637224,75,67.3,0.23659306,95,66.8,0.299684543,NA,NA,NA,NA,NA,NA,100,10,0,0.031545741,NA,NA,NA,NA,1,1,1,1,317,263,10,16,1910292,25215.88,High School,0.836,0,0
02M437,Hudson High School of Learning Technologies,MANHATTAN,9 to 12,40.742867,-74.002136,169,57.1,0.355042017,35,50.7,0.073529412,94,54.7,0.197478992,142,64.2,0.298319328,95,62.2,0.199579832,23,62.5,0.048319328,NA,NA,NA,200,11,0,0.023109244,5,1,2,3,0.82,1,0.85,0.92,476,399,4,32,2591363,23659.72,High School,0.851,2,2
02M438,International High School at Union Square,MANHATTAN,9 to 12,40.735494,-73.987659,198,61,0.55,NA,NA,NA,NA,NA,NA,NA,NA,NA,NA,NA,NA,NA,NA,NA,NA,NA,NA,200,8,1,0.022222222,1,0,1,0,0.81,1,1,1,360,286,5.5,21,2316491,22766.77,High School,0.85,0,1
02M439,Manhattan Village Academy,MANHATTAN,9 to 12,40.741497,-73.991512,93,78.5,0.203947368,119,80.3,0.260964912,122,76.6,0.26754386,89,80.3,0.195175439,116,85.4,0.254385965,140,67.6,0.307017544,24,85.3,0.052631579,100,9,0,0.019736842,1,1,1,0,0.76,1,0.9,0.9,456,352,9.7,18,2231016,18878.16,High School,0.776,4,0
02M449,Vanguard High School,MANHATTAN,9 to 12,40.765359,-73.960059,2,NA,0.004484305,NA,NA,NA,NA,NA,NA,NA,NA,NA,NA,NA,NA,NA,NA,NA,NA,NA,NA,200,13,0,0.029147982,5,1,1,4,1,1,1,1,446,360,4.9,27,3152271,22413.63,High School,0.814,1,0
02M459,Manhattan International High School,MANHATTAN,9 to 12,40.765359,-73.960059,1,NA,0.002967359,NA,NA,NA,NA,NA,NA,1,NA,0.002967359,NA,NA,NA,NA,NA,NA,NA,NA,NA,200,8,0,0.023738872,1,0,1,0,0.92,NA,NA,NA,337,278,4,18,1767722,21983.65,High School,0.855,0,NA
02M475,Stuyvesant High School,MANHATTAN,9 to 12,40.71759,-74.013748,104,91.4,0.03117506,915,90.5,0.274280576,796,93.1,0.238609113,394,93.6,0.118105516,NA,NA,NA,846,89.4,0.253597122,768,90.5,0.230215827,200,69,0,0.020683453,6,1,3,3,0.8,0.98,0.98,1,3336,1477,16,145,15292301,17052.47,High School,0.464,7,2
02M489,High School of Economics and Finance,MANHATTAN,9 to 12,40.709196,-74.012022,272,68.2,0.368563686,125,61,0.169376694,124,60.3,0.16802168,254,69.5,0.344173442,134,69.6,0.181571816,70,50.8,0.094850949,23,48.4,0.031165312,100,11,0,0.014905149,NA,NA,NA,NA,0.98,0.92,0.85,0.92,738,592,10,34,3698979,20426.21,High School,0.813,1,0
02M500,Unity Center for Urban Technologies,MANHATTAN,9 to 12,40.746176,-73.981241,118,68.8,0.462745098,7,58.6,0.02745098,47,52.6,0.184313725,90,70.2,0.352941176,33,57.6,0.129411765,14,52.3,0.054901961,NA,NA,NA,100,3,0,0.011764706,NA,NA,NA,NA,1,NA,NA,NA,255,227,11,4,1071645,23448.59,High School,0.89,1,1
02M507,Urban Assembly Gateway School for Technology,MANHATTAN,9 to 12,40.76337,-73.990593,141,68.5,0.316853933,82,62.9,0.184269663,179,61.8,0.402247191,119,78,0.26741573,107,76.5,0.240449438,70,61.1,0.157303371,11,61,0.024719101,200,9,0,0.020224719,13,0,6,7,1,0.88,0.88,1,445,253,11,23,2838966,22232.21,High School,0.596,1,1
02M519,Talent Unlimited High School,MANHATTAN,9 to 12,40.765359,-73.960059,103,67.7,0.215481172,77,65,0.161087866,139,66.5,0.290794979,108,74.6,0.225941423,120,63.8,0.251046025,22,61.7,0.046025105,25,52.1,0.052301255,200,6,0,0.012552301,3,0,0,3,0.84,1,0.86,0.86,478,264,7,24,2974143,21036.57,High School,0.556,1,0
02M520,Murry Bergtraum High School for Business Careers,MANHATTAN,9 to 12,40.711442,-74.000851,84,55.3,0.3099631,6,55.8,0.022140221,56,46.4,0.206642066,79,57.7,0.291512915,63,45.4,0.232472325,21,50.8,0.077490775,NA,NA,NA,100,7,0,0.025830258,1,1,1,0,1,0.55,0.64,0.64,271,209,7,19,1688405,38940.94,High School,0.775,2,1
02M529,Jacqueline Kennedy Onassis High School,MANHATTAN,9 to 12,40.757729,-73.983078,210,62.7,0.37037037,53,58.3,0.093474427,142,52.3,0.250440917,142,65.8,0.250440917,107,65.5,0.188712522,91,57.4,0.160493827,NA,NA,NA,100,9,0,0.015873016,NA,NA,NA,NA,0.82,0.44,0.44,0.44,567,451,17,23,2995317,21872.11,High School,0.811,1,0
02M531,Repertory Company High School for Theatre Arts,MANHATTAN,9 to 12,40.755843,-73.984382,68,65.9,0.280991736,23,67.2,0.095041322,82,57.2,0.338842975,67,71.9,0.276859504,88,73.1,0.363636364,16,64.6,0.066115702,NA,NA,NA,100,6,0,0.024793388,1,0,0,1,0.67,NA,NA,NA,242,168,4,12,1279105,21719.6,High School,0.694,2,0
02M533,Union Square Academy for Health Sciences,MANHATTAN,9 to 12,40.735494,-73.987659,164,62.1,0.412060302,51,59.4,0.128140704,103,60.6,0.25879397,119,65.5,0.298994975,96,69.5,0.24120603,26,57.1,0.065326633,NA,NA,NA,200,7,0,0.01758794,NA,NA,NA,NA,0.85,0.9,0.9,0.9,398,333,12,18,2265560,22090.47,High School,0.859,1,1
02M534,Harvest Collegiate High School,MANHATTAN,9 to 12,40.736518,-73.994858,NA,NA,NA,NA,NA,NA,NA,NA,NA,NA,NA,NA,NA,NA,NA,NA,NA,NA,NA,NA,NA,100,10,1,0.020533881,1,0,0,1,0.97,0.91,0.91,0.82,487,315,10.5,28,3181626,22655.9,High School,0.655,0,NA
02M542,Manhattan Bridges High School,MANHATTAN,9 to 12,40.765184,-73.992953,191,70.2,0.369439072,98,67.4,0.189555126,173,68.8,0.334622824,136,73.2,0.263056093,165,69.9,0.319148936,31,71.9,0.059961315,22,55.3,0.042553191,200,13,0,0.025145068,3,1,1,2,0.94,0.83,0.92,0.83,517,427,8.7,22,2695418,20234.16,High School,0.832,2,2
02M543,New Design High School,MANHATTAN,9 to 12,40.716778,-73.989337,196,59.5,0.459016393,NA,NA,NA,10,54.5,0.023419204,164,63.1,0.384074941,50,72,0.117096019,NA,NA,NA,NA,NA,NA,100,10,0,0.023419204,1,0,0,1,0.98,0.86,0.79,0.85,427,342,8,31,3210146,22602.18,High School,0.815,0,0
02M544,Independence High School,MANHATTAN,"School is structured on credit needs, not grade level",40.768343,-73.989108,71,54.1,0.21257485,NA,NA,NA,2,NA,0.005988024,75,53.4,0.224550898,NA,NA,NA,NA,NA,NA,NA,NA,NA,200,4,0,0.011976048,NA,NA,NA,NA,1,NA,NA,NA,334,307,8,11,1789706,23568.01,High School,0.925,0,0
02M545,High School for Dual Language and Asian Studies,MANHATTAN,9 to 12,40.716778,-73.989337,95,88.8,0.23989899,127,81.8,0.320707071,112,83,0.282828283,103,83.1,0.26010101,92,84.4,0.232323232,114,76.9,0.287878788,NA,NA,NA,100,7,1,0.017676768,NA,NA,NA,NA,0.5,NA,NA,NA,396,344,2.9,19,2169224,19714.35,High School,0.884,5,0
02M546,Academy for Software Engineering (AFSE),MANHATTAN,9 to 12,40.735494,-73.987659,118,67.1,0.256521739,32,68.9,0.069565217,108,63.3,0.234782609,101,73.4,0.219565217,100,72.1,0.217391304,48,64.4,0.104347826,NA,NA,NA,200,13,0,0.02826087,9,2,2,7,1,1,0.82,0.91,460,317,10,24,2512125,22159.02,High School,0.698,3,2
02M551,Urban Assembly New York Harbor School,MANHATTAN,9 to 12,40.701695,-74.011631,163,64.7,0.305243446,64,62,0.119850187,100,65.8,0.187265918,144,75.8,0.269662921,31,76.1,0.058052434,42,62.5,0.078651685,NA,NA,NA,100,12,0,0.02247191,NA,NA,NA,NA,0.79,0.86,0.92,1,534,286,7,30,3403923,21541.78,High School,0.543,0,0
02M580,Richard R. Green High School of Teaching,MANHATTAN,9 to 12,40.705024,-74.012977,173,63.4,0.346693387,29,73.3,0.058116232,90,53.8,0.180360721,128,65.7,0.256513026,150,66.4,0.300601202,23,65.4,0.046092184,1,NA,0.002004008,100,9,0,0.018036072,2,0,2,0,0.78,1,0.92,1,499,418,4,29,2800468,21421.91,High School,0.848,0,0
02M600,The High School of Fashion Industries,MANHATTAN,9 to 12,40.745156,-73.996074,414,66.1,0.260377358,358,62.6,0.225157233,387,61.5,0.243396226,409,74,0.257232704,319,70.9,0.200628931,154,59.2,0.096855346,12,58.6,0.00754717,100,25,0,0.01572327,1,1,1,0,0.96,0.92,0.92,0.92,1590,1319,25,77,8496157,20219.61,High School,0.837,3,1
02M605,Humanities Preparatory Academy,MANHATTAN,9 to 12,40.742867,-74.002136,1,NA,0.004255319,NA,NA,NA,NA,NA,NA,1,NA,0.004255319,NA,NA,NA,NA,NA,NA,NA,NA,NA,200,6,0,0.025531915,2,1,2,0,0.93,NA,NA,NA,235,191,4.3,12,1571618,23371.71,High School,0.83,1,1
02M615,Chelsea Career and Technical Education High School,MANHATTAN,9 to 12,40.7244,-74.004625,113,70.6,0.262790698,57,65.2,0.13255814,128,61.3,0.297674419,109,77,0.253488372,38,81.8,0.088372093,33,66.6,0.076744186,10,59.3,0.023255814,200,10,0,0.023255814,1,1,1,0,0.97,0.67,0.67,1,430,378,3,30,3243628,25177.82,High School,0.888,2,0
02M630,Art and Design High School,MANHATTAN,9 to 12,40.75924,-73.967203,321,71.2,0.221838286,273,66,0.188666206,380,68.7,0.262612301,321,75.9,0.221838286,301,65.8,0.208016586,219,65.6,0.151347616,31,64.2,0.021423635,200,18,0,0.01243953,NA,NA,NA,NA,0.99,0.86,0.91,0.86,1447,907,23,67,7943239,21274.1,High School,0.641,3,0
02M655,Life Sciences Secondary School,MANHATTAN,6 to 12,40.783625,-73.945637,NA,NA,NA,NA,NA,NA,NA,NA,NA,NA,NA,NA,NA,NA,NA,NA,NA,NA,NA,NA,NA,100,11,0,0.019163763,NA,NA,NA,NA,0.74,1,1,0.82,574,468,15,26,2544623,21724.28,High School,0.828,2,1
03M291,West End Secondary School,MANHATTAN,6 to 12,40.772007,-73.987479,NA,NA,NA,NA,NA,NA,NA,NA,NA,NA,NA,NA,NA,NA,NA,NA,NA,NA,NA,NA,NA,100,6,0,0.017699115,NA,NA,NA,NA,1,1,0.88,1,339,64,13,10,2042009,18913.69,High School,0.192,0,NA
03M299,The Maxine Greene High School for Imaginative Inquiry,MANHATTAN,9 to 12,40.774351,-73.984753,151,57,0.399470899,50,53.1,0.132275132,119,51.6,0.314814815,103,61.1,0.272486772,142,60.5,0.375661376,1,NA,0.002645503,NA,NA,NA,200,9,0,0.023809524,1,1,1,0,0.82,0.82,0.91,0.82,378,310,13,17,2126986,22675.06,High School,0.836,1,0
03M307,"Urban Assembly School for Media Studies, The",MANHATTAN,9 to 12,40.774351,-73.984753,132,62.9,0.332493703,46,59.5,0.115869018,125,59.4,0.314861461,108,65,0.272040302,115,70.5,0.289672544,18,64.7,0.04534005,NA,NA,NA,200,8,0,0.020151134,NA,NA,NA,NA,0.97,1,1,1,397,339,8.6,20,2341706,22965.47,High School,0.861,0,0
03M402,The Urban Assembly School for Green Careers,MANHATTAN,9 to 12,40.785803,-73.974614,154,57.5,0.495176849,4,NA,0.012861736,18,54.8,0.057877814,96,59.4,0.308681672,86,46.5,0.276527331,NA,NA,NA,NA,NA,NA,100,6,0,0.019292605,NA,NA,NA,NA,1,1,1,1,311,263,11,14,2086213,26108.6,High School,0.862,0,0
03M403,The Global Learning Collaborative,MANHATTAN,9 to 12,40.785803,-73.974614,147,61.7,0.337155963,70,59.2,0.160550459,22,59.1,0.050458716,107,63.2,0.245412844,52,63.9,0.119266055,26,66.7,0.059633028,NA,NA,NA,100,8,0,0.018348624,4,1,4,0,0.88,1,1,1,436,355,10,22,2749978,22379.59,High School,0.828,1,0
03M415,Wadleigh Secondary School for the Performing & Visual Arts,MANHATTAN,6 to 12,40.802207,-73.954142,NA,NA,NA,NA,NA,NA,NA,NA,NA,NA,NA,NA,NA,NA,NA,NA,NA,NA,NA,NA,NA,100,7,0,0.025179856,NA,NA,NA,NA,0.94,0.9,0.9,0.9,278,225,7.3,25,2631599,34546.96,High School,0.824,0,0
03M417,Frank McCourt High School,MANHATTAN,9 to 12,40.785803,-73.974614,123,68.5,0.299270073,7,72.4,0.01703163,27,66.2,0.065693431,111,72.2,0.270072993,NA,NA,NA,39,68.5,0.094890511,NA,NA,NA,100,9,0,0.02189781,NA,NA,NA,NA,1,1,1,1,411,226,6,20,2235576,18570.22,High School,0.555,0,NA
03M479,Beacon High School,MANHATTAN,9 to 12,40.761452,-73.995802,2,NA,0.001449275,1,NA,0.000724638,1,NA,0.000724638,NA,NA,NA,NA,NA,NA,NA,NA,NA,NA,NA,NA,100,21,0,0.015217391,NA,NA,NA,NA,0.91,1,1,1,1380,341,4.5,61,6397304,16067.92,High School,0.257,3,0
03M485,Fiorello H. LaGuardia High School of Music & Art and Performing Arts,MANHATTAN,9 to 12,40.773629,-73.985273,406,83.3,0.144535422,683,79,0.243147027,703,81.5,0.250266999,490,86.4,0.174439302,152,81.9,0.054111784,764,72.8,0.271982912,483,77.1,0.171947312,100,36,0,0.012815949,2,1,2,0,0.74,0.77,0.77,0.77,2809,806,19.7,122,13822463,17444.03,High School,0.296,8,1
03M492,"High School for Law, Advocacy and Community Justice",MANHATTAN,9 to 12,40.774351,-73.984753,134,65.8,0.287553648,169,58.2,0.362660944,19,60.9,0.040772532,123,64.2,0.263948498,98,60.1,0.210300429,41,54.2,0.087982833,NA,NA,NA,200,10,1,0.021459227,1,1,1,0,1,0.92,1,1,466,412,7.2,28,2974151,23503.19,High School,0.893,1,1
03M494,High School of Arts and Technology,MANHATTAN,9 to 12,40.774351,-73.984753,214,56.3,0.424603175,8,62.8,0.015873016,98,50,0.194444444,206,62.7,0.408730159,64,63.6,0.126984127,14,44.5,0.027777778,NA,NA,NA,200,11,1,0.021825397,NA,NA,NA,NA,0.97,0.82,0.73,0.73,504,423,8.2,27,3094920,24342.2,High School,0.861,1,1
03M541,Manhattan / Hunter Science High School,MANHATTAN,9 to 12,40.774351,-73.984753,44,80.3,0.099547511,89,82.8,0.201357466,125,84.3,0.28280543,62,86.6,0.140271493,NA,NA,NA,92,79.7,0.208144796,77,73.9,0.174208145,200,9,0,0.020361991,1,1,1,0,0.88,1,1,1,442,269,5.5,19,2175511,18552.05,High School,0.615,0,3
03M859,Special Music School,MANHATTAN,K to 12,40.774351,-73.984753,NA,NA,NA,NA,NA,NA,NA,NA,NA,NA,NA,NA,NA,NA,NA,NA,NA,NA,NA,NA,NA,NA,6,0,0.01910828,NA,NA,NA,NA,0.83,1,1,1,314,64,10.2,14,2125729,20841.24,High School,0.217,0,0
03M860,Frederick Douglass Academy II Secondary School,MANHATTAN,6 to 12,40.802207,-73.954142,NA,NA,NA,NA,NA,NA,NA,NA,NA,NA,NA,NA,NA,NA,NA,NA,NA,NA,NA,NA,NA,100,9,0,0.025423729,1,0,0,1,0.85,0.57,0.43,0.57,354,284,21,8,2177941,23455.49,High School,0.831,1,1
04M372,Esperanza Preparatory Academy,MANHATTAN,6 to 12,40.79307,-73.942303,NA,NA,NA,NA,NA,NA,NA,NA,NA,NA,NA,NA,NA,NA,NA,NA,NA,NA,NA,NA,NA,100,12,0,0.021466905,NA,NA,NA,NA,0.84,0.83,0.75,0.83,559,506,20,32,4021860,27581.15,High School,0.927,0,0
04M409,Coalition School for Social Change,MANHATTAN,9 to 12,40.79926,-73.93374,54,56.5,NA,NA,NA,NA,10,42.8,NA,40,60.4,NA,15,58.2,NA,NA,NA,NA,NA,NA,NA,100,3,0,0.024793388,NA,NA,NA,NA,1,NA,NA,NA,NA,NA,NA,NA,NA,NA,High School,NA,0,0
04M435,Manhattan Center for Science and Mathematics,MANHATTAN,9 to 12,40.793856,-73.934028,416,77.5,0.256,387,82.8,0.238153846,428,77,0.263384615,293,83.7,0.180307692,159,75.8,0.097846154,359,78.6,0.220923077,235,81.1,0.144615385,200,28,0,0.017230769,3,1,1,2,0.91,0.93,0.93,0.9,1625,1377,32,50,7362010,18043.14,High School,0.857,8,3
04M495,Park East High School,MANHATTAN,9 to 12,40.790543,-73.944356,105,74.4,0.25862069,62,68.8,0.15270936,113,59.7,0.278325123,89,77.3,0.219211823,116,71.7,0.285714286,55,63.2,0.13546798,NA,NA,NA,100,10,0,0.024630542,NA,NA,NA,NA,0.94,0.92,0.92,0.92,406,340,6,24,2709652,21873.68,High School,0.847,2,0
04M555,Central Park East High School,MANHATTAN,9 to 12,40.793763,-73.949381,86,77.8,0.173387097,91,76.2,0.183467742,140,75.5,0.282258065,107,80.2,0.215725806,75,82,0.151209677,92,72.2,0.185483871,70,67.9,0.141129032,100,11,0,0.022177419,4,0,2,2,0.94,1,1,1,496,411,6,26,2497046,21264.24,High School,0.837,3,0
04M610,Young Women's Leadership School (TYWLS),MANHATTAN,6 to 12,40.792741,-73.947428,NA,NA,NA,NA,NA,NA,NA,NA,NA,NA,NA,NA,NA,NA,NA,NA,NA,NA,NA,NA,NA,100,10,0,0.020790021,NA,NA,NA,NA,0.97,1,1,1,481,384,7,25,2638783,19522.81,High School,0.811,2,NA
04M680,"Heritage School, The",MANHATTAN,9 to 12,40.791881,-73.946558,185,63.2,0.629251701,3,NA,0.010204082,33,50.8,0.112244898,29,65.9,0.098639456,104,62.9,0.353741497,27,60.9,0.091836735,16,57.3,0.054421769,100,7,0,0.023809524,NA,NA,NA,NA,0.88,0.89,0.89,1,294,271,2,20,1839464,23147.61,High School,0.935,1,1
05M148,Eagle Academy for Young Men of Harlem,MANHATTAN,6 to 11,40.817372,-73.947712,NA,NA,NA,NA,NA,NA,NA,NA,NA,NA,NA,NA,NA,NA,NA,NA,NA,NA,NA,NA,NA,100,7,0,0.022012579,NA,NA,NA,NA,0.33,0.8,0.8,0.8,318,242,12,16,2604385,22984.65,High School,0.78,0,0
05M157,The Urban Assembly School for Global Commerce,MANHATTAN,9 to 12,40.807383,-73.939433,85,55.4,0.352697095,1,NA,0.004149378,25,50.3,0.10373444,87,59.9,0.360995851,20,64.2,0.082987552,NA,NA,NA,NA,NA,NA,100,7,0,0.029045643,NA,NA,NA,NA,0.78,0.89,0.78,0.78,241,195,12,10,1545117,25095.64,High School,0.826,0,2
05M304,Mott Hall High School,MANHATTAN,9 to 12,40.817372,-73.947712,147,56.7,0.494949495,12,69,0.04040404,29,50.6,0.097643098,82,51.5,0.276094276,42,49.4,0.141414141,16,50.9,0.053872054,NA,NA,NA,100,5,0,0.016835017,NA,NA,NA,NA,0.95,1,1,1,297,275,6,11,1620572,24035.48,High School,0.936,0,0
05M362,Columbia Secondary School,MANHATTAN,6 to 12,40.810431,-73.955809,NA,NA,NA,NA,NA,NA,NA,NA,NA,NA,NA,NA,NA,NA,NA,NA,NA,NA,NA,NA,NA,100,15,0,0.021367521,2,1,2,0,0.42,1,1,1,702,376,11,38,4013669,19327.08,High School,0.55,0,4
05M367,Academy for Social Action,MANHATTAN,9 to 12,40.81574,-73.95552,38,54.3,NA,10,55.1,NA,NA,NA,NA,7,57.7,NA,37,48.4,NA,NA,NA,NA,NA,NA,NA,100,3,0,0.032258065,NA,NA,NA,NA,1,1,0.8,1,NA,NA,NA,NA,NA,NA,High School,NA,0,0
05M369,Urban Assembly School for the Performing Arts,MANHATTAN,9 to 12,40.815256,-73.955325,163,55.8,0.457865169,16,45.2,0.04494382,42,48.9,0.117977528,137,56.6,0.384831461,53,56.1,0.148876404,NA,NA,NA,NA,NA,NA,100,5,0,0.014044944,NA,NA,NA,NA,0.93,1,1,1,356,321,9,15,2133005,21225.23,High School,0.91,0,0
05M499,Frederick Douglass Academy,MANHATTAN,6 to 12,40.824319,-73.93712,NA,NA,NA,NA,NA,NA,NA,NA,NA,NA,NA,NA,NA,NA,NA,NA,NA,NA,NA,NA,NA,100,26,0,0.019089574,1,1,1,0,0.46,0.74,0.8,0.79,1362,1036,4,78,7915049,19400.62,High School,0.776,2,NA
05M670,Thurgood Marshall Academy for Learning and Social Change,MANHATTAN,7 to 12,40.815509,-73.944202,NA,NA,NA,NA,NA,NA,NA,NA,NA,NA,NA,NA,NA,NA,NA,NA,NA,NA,NA,NA,NA,100,13,0,0.023765996,NA,NA,NA,NA,0.54,0.8,1,1,547,403,5,33,3722202,21571.04,High School,0.755,1,NA
05M692,"High School for Mathematics, Science and Engineering at City College (HSMSE)",MANHATTAN,9 to 12,40.82074,-73.949097,105,89.7,0.21,138,87.8,0.276,171,85.4,0.342,112,88.9,0.224,NA,NA,NA,148,86.4,0.296,98,85.4,0.196,100,14,0,0.028,1,1,1,0,0.94,0.86,0.86,0.93,500,213,1,29,2971595,21252.91,High School,0.454,5,4
06M211,Inwood Early College for Health and Information Technologies,MANHATTAN,9 to 13 (This school is expanding to serve grades 9 to 14),40.866053,-73.924835,87,62.7,0.231382979,21,63.9,0.055851064,33,63,0.087765957,80,69.1,0.212765957,95,61.9,0.252659574,36,55.8,0.095744681,NA,NA,NA,100,9,0,0.02393617,NA,NA,NA,NA,0.85,NA,NA,NA,376,358,8,20,2735090,23921.92,High School,0.95,0,1
06M293,City College Academy of the Arts,MANHATTAN,6 to 12,40.86079,-73.930672,NA,NA,NA,NA,NA,NA,NA,NA,NA,NA,NA,NA,NA,NA,NA,NA,NA,NA,NA,NA,NA,100,13,0,0.021594684,2,0,2,0,0.44,1,0.86,0.86,602,497,10,28,3374400,19520.5,High School,0.834,0,NA
06M346,Community Health Academy of the Heights,MANHATTAN,6 to 12,40.833687,-73.942072,NA,NA,NA,NA,NA,NA,NA,NA,NA,NA,NA,NA,NA,NA,NA,NA,NA,NA,NA,NA,NA,100,13,0,0.018492176,NA,NA,NA,NA,1,1,1,1,703,654,12,41,4108848,21182.14,High School,0.933,1,NA
06M348,Washington Heights Expeditionary Learning School (WHEELS),MANHATTAN,4 to 12,40.848908,-73.930948,NA,NA,NA,NA,NA,NA,NA,NA,NA,NA,NA,NA,NA,NA,NA,NA,NA,NA,NA,NA,NA,100,14,0,0.017177914,1,0,0,1,0.72,1,0.88,0.88,784,615,19,44,5168997,21088.68,High School,0.773,0,NA
06M423,High School for Excellence and Innovation,MANHATTAN,9 to 12,40.866053,-73.924835,62,56.1,0.308457711,NA,NA,NA,2,NA,0.009950249,63,63.7,0.313432836,NA,NA,NA,NA,NA,NA,NA,NA,NA,100,5,0,0.024875622,NA,NA,NA,NA,1,1,1,1,201,182,4,15,1739492,30642.61,High School,0.95,0,2
06M462,The College Academy,MANHATTAN,9 to 12,40.855954,-73.927051,214,63.2,0.465217391,41,66.2,0.089130435,103,56,0.223913043,174,57.7,0.37826087,113,61.6,0.245652174,19,49.9,0.041304348,1,NA,0.002173913,200,7,0,0.015217391,NA,NA,NA,NA,0.74,1,1,1,460,440,11,18,2633137,23997.39,High School,0.95,1,0
06M463,High School for Media and Communications,MANHATTAN,9 to 12,40.855954,-73.927051,259,56.6,0.634803922,7,47.3,0.017156863,53,47.3,0.129901961,172,57.2,0.421568627,90,58.6,0.220588235,18,58.8,0.044117647,4,NA,0.009803922,200,6,0,0.014705882,NA,NA,NA,NA,1,1,0.86,0.86,408,371,4,21,2554525,25118.53,High School,0.95,1,0
06M467,High School for Law and Public Service,MANHATTAN,9 to 12,40.855954,-73.927051,225,55.8,0.413602941,37,54.3,0.068014706,127,49,0.233455882,202,55.4,0.371323529,68,58.8,0.125,24,56.5,0.044117647,26,43.8,0.047794118,200,8,0,0.014705882,NA,NA,NA,NA,0.92,1,1,1,544,484,4,33,3170704,25711.29,High School,0.897,1,0
06M468,High School for Health Careers and Sciences,MANHATTAN,9 to 12,40.855954,-73.927051,153,61.2,0.330453564,26,63.5,0.056155508,63,50.1,0.136069114,172,63.1,0.371490281,71,61,0.153347732,2,NA,0.004319654,4,NA,0.008639309,200,13,0,0.028077754,1,0,1,0,0.93,1,0.93,0.93,463,448,9.2,31,3557978,27216.41,High School,0.95,1,0
06M540,A. Philip Randolph Campus High School,MANHATTAN,9 to 12,40.818188,-73.950356,330,72.3,0.24,129,73.4,0.093818182,249,65.3,0.181090909,293,74.1,0.213090909,134,60.2,0.097454545,106,72,0.077090909,24,61,0.017454545,100,28,0,0.020363636,NA,NA,NA,NA,0.93,0.9,0.9,0.9,1375,1178,15,68,7505797,20440.35,High School,0.863,2,0
06M552,Gregorio Luperon High School for Science and Mathematics,MANHATTAN,9 to 12,40.838167,-73.938642,316,61.2,0.603053435,67,60.1,0.127862595,3,NA,0.005725191,220,64,0.419847328,106,68.6,0.202290076,17,65.5,0.032442748,20,66.6,0.038167939,100,11,0,0.020992366,4,2,3,1,0.85,0.88,0.88,0.88,524,472,4,24,3099016,21216.27,High School,0.95,4,3
07X221,South Bronx Preparatory: A College Board School,BRONX    ,6 to 12,40.813983,-73.920782,NA,NA,NA,NA,NA,NA,NA,NA,NA,NA,NA,NA,NA,NA,NA,NA,NA,NA,NA,NA,NA,200,13,1,0.019726859,2,0,0,2,1,0.95,0.86,0.95,659,635,18.9,30,3841840,23927,High School,0.95,0,0
07X223,M.S. 223 The Laboratory School of Finance and Technology,BRONX    ,6 to 12,40.813983,-73.920782,NA,NA,NA,NA,NA,NA,NA,NA,NA,NA,NA,NA,NA,NA,NA,NA,NA,NA,NA,NA,NA,200,12,0,0.01754386,10,2,9,1,0.98,0.89,0.89,0.84,684,666,22.4,29,4081308,21253.09,High School,0.95,2,0
07X259,"H.E.R.O. High (Health, Education, and Research Occupations High School)",BRONX    ,9 to 13,40.810803,-73.907015,234,57.6,0.471774194,NA,NA,NA,9,59.7,0.018145161,158,62.9,0.318548387,NA,NA,NA,3,NA,0.006048387,NA,NA,NA,100,10,0,0.02016129,NA,NA,NA,NA,0.43,NA,NA,NA,496,409,18,17,3113200,24192.38,High School,0.835,0,0
07X334,International Community High School,BRONX    ,9 to 12,40.81004,-73.917792,12,79.1,0.027522936,NA,NA,NA,NA,NA,NA,NA,NA,NA,NA,NA,NA,NA,NA,NA,NA,NA,NA,200,8,0,0.018348624,4,1,2,2,0.94,1,0.9,0.9,436,404,3,26,2568762,22859.31,High School,0.95,1,1
07X427,Community School for Social Justice,BRONX    ,9 to 12,40.815938,-73.930386,2,NA,0.006060606,NA,NA,NA,NA,NA,NA,2,NA,0.006060606,NA,NA,NA,NA,NA,NA,NA,NA,NA,100,6,0,0.018181818,NA,NA,NA,NA,0.92,1,1,1,330,302,4,19,2026237,23854.28,High School,0.924,0,NA
07X473,Mott Haven Village Preparatory High School,BRONX    ,9 to 12,40.81825,-73.91103,178,57.2,0.497206704,6,54,0.016759777,64,43.1,0.17877095,111,56,0.310055866,35,50.3,0.097765363,2,NA,0.005586592,NA,NA,NA,100,6,0,0.016759777,NA,NA,NA,NA,1,0.75,0.5,0.75,358,329,15.8,13,2227126,25379.72,High School,0.93,0,0
07X495,University Heights Secondary School,BRONX    ,9 to 12,40.81825,-73.91103,NA,NA,NA,NA,NA,NA,NA,NA,NA,NA,NA,NA,NA,NA,NA,NA,NA,NA,NA,NA,NA,100,7,0,0.014256619,NA,NA,NA,NA,1,1,1,1,491,423,4.5,20,2267013,19737.97,High School,0.872,1,3
07X500,Hostos-Lincoln Academy of Science,BRONX    ,6 to 12,40.815498,-73.91224,NA,NA,NA,NA,NA,NA,NA,NA,NA,NA,NA,NA,NA,NA,NA,NA,NA,NA,NA,NA,NA,100,7,0,0.013779528,NA,NA,NA,NA,0.61,1,1,1,508,434,6,30,3032783,22266.48,High School,0.86,0,1
07X522,Bronx Design and Construction Academy,BRONX    ,9 to 12,40.818232,-73.919867,163,61.9,0.323412698,41,61.1,0.081349206,63,61.1,0.125,153,64.6,0.303571429,48,73.6,0.095238095,16,43.3,0.031746032,5,NA,0.009920635,100,9,0,0.017857143,NA,NA,NA,NA,0.98,0.73,0.8,0.8,504,420,15,30,3723833,27414.2,High School,0.847,1,0
07X527,Bronx Leadership Academy II High School,BRONX    ,9 to 12,40.82231,-73.923829,196,62.3,0.382066277,83,57.1,0.161793372,150,46.1,0.292397661,209,60.3,0.407407407,78,52.3,0.152046784,41,44.7,0.079922027,NA,NA,NA,200,10,0,0.019493177,NA,NA,NA,NA,0.73,0.75,0.58,0.58,513,484,18,22,3121756,24735.08,High School,0.95,0,0
07X547,New Explorers High School,BRONX    ,9 to 12,40.821828,-73.922366,107,55.1,NA,1,NA,NA,30,44.7,NA,33,58.6,NA,1,NA,NA,9,40.9,NA,7,33.3,NA,200,6,0,0.01910828,NA,NA,NA,NA,0.64,0.67,0.83,0.67,NA,NA,NA,NA,NA,NA,High School,NA,0,1
07X548,Urban Assembly School for Careers in Sports,BRONX    ,9 to 12,40.82231,-73.923829,182,60.2,0.353398058,23,60.9,0.044660194,10,60,0.019417476,75,53.4,0.145631068,93,55.2,0.180582524,22,51.5,0.042718447,NA,NA,NA,200,10,0,0.019417476,NA,NA,NA,NA,0.83,0.91,1,0.91,515,457,6,33,3158879,23452.41,High School,0.893,1,NA
07X551,The Urban Assembly Bronx Academy of Letters,BRONX    ,6 to 12,40.813641,-73.925313,NA,NA,NA,NA,NA,NA,NA,NA,NA,NA,NA,NA,NA,NA,NA,NA,NA,NA,NA,NA,NA,100,11,0,0.018644068,1,0,1,0,0.9,0.81,0.88,0.88,590,530,17.4,40,4333256,24549.22,High School,0.91,2,0
07X600,Alfred E. Smith Career and Technical Education High School,BRONX    ,9 to 12,40.818232,-73.919867,163,59.3,0.352051836,14,54,0.030237581,18,53.2,0.03887689,143,61.9,0.308855292,107,56,0.231101512,NA,NA,NA,NA,NA,NA,100,8,0,0.017278618,NA,NA,NA,NA,0.43,1,1,1,463,432,7,31,3389054,27336.7,High School,0.933,1,0
07X670,Health Opportunities High School,BRONX    ,9 to 12,40.815938,-73.930386,193,61.6,0.393075356,20,64.3,0.040733198,6,66.5,0.012219959,134,63.8,0.272912424,1,NA,0.00203666,18,55.3,0.036659878,NA,NA,NA,100,8,0,0.016293279,NA,NA,NA,NA,1,0.83,0.83,0.83,491,416,3,27,2910876,22929.47,High School,0.87,2,0
08X269,Bronx Studio School for Writers and Artists,BRONX    ,6 to 12,40.820579,-73.893128,NA,NA,NA,NA,NA,NA,NA,NA,NA,NA,NA,NA,NA,NA,NA,NA,NA,NA,NA,NA,NA,100,9,0,0.01399689,NA,NA,NA,NA,0.88,0.92,0.92,0.92,643,545,19,32,4317685,24732.97,High School,0.868,0,0
08X282,Women's Academy of Excellence,BRONX    ,9 to 12,40.814833,-73.85658,111,63,0.395017794,6,74.5,0.021352313,11,66.5,0.039145907,99,62.2,0.352313167,NA,NA,NA,13,69.7,0.046263345,NA,NA,NA,100,6,0,0.021352313,NA,NA,NA,NA,1,0.88,0.88,0.88,281,262,5,17,1654523,24451.17,High School,0.943,0,0
08X293,Renaissance High School for Musical Theater & Technology,BRONX    ,9 to 12,40.840702,-73.838545,169,62.6,NA,22,66.4,NA,118,56.9,NA,130,65.5,NA,78,67.2,NA,2,NA,NA,34,63.3,NA,200,9,0,0.019354839,2,0,1,1,0.91,1,0.78,0.88,NA,NA,NA,NA,NA,NA,High School,0.72,0,1
08X312,Millennium Art Academy,BRONX    ,9 to 12,40.82229,-73.856167,256,56.7,0.592592593,32,55.9,0.074074074,23,61.9,0.053240741,101,63.3,0.233796296,53,60.8,0.122685185,16,61.4,0.037037037,NA,NA,NA,100,7,0,0.016203704,1,1,1,0,0.82,0.88,0.88,0.88,432,315,5.5,28,2939194,27164.81,High School,0.748,0,0
08X320,Pelham Lab High School,BRONX    ,9 to 12,40.840702,-73.838545,138,60.4,0.296137339,37,55.9,0.079399142,40,57.3,0.08583691,137,62.5,0.293991416,70,49.6,0.150214592,7,57.4,0.015021459,5,NA,0.010729614,200,9,0,0.019313305,NA,NA,NA,NA,0.82,1,0.9,1,466,407,18,16,2960456,23158.59,High School,0.884,1,1
08X332,Holcombe L. Rucker School of Community Research,BRONX    ,9 to 12,40.817741,-73.897876,50,58.1,NA,NA,NA,NA,6,56,NA,58,62.1,NA,1,NA,NA,3,NA,NA,NA,NA,NA,100,4,0,0.026845638,NA,NA,NA,NA,0.73,NA,NA,NA,NA,NA,NA,NA,NA,NA,High School,NA,0,0
08X348,Schuylerville Preparatory High School,BRONX    ,9 to 12,40.840702,-73.838545,157,56.8,0.417553191,55,46.2,0.146276596,79,50.9,0.210106383,132,57.6,0.35106383,113,53.1,0.300531915,12,43.2,0.031914894,NA,NA,NA,200,8,0,0.021276596,NA,NA,NA,NA,0.41,1,1,1,376,286,5,21,2428518,23104.58,High School,0.777,0,0
08X349,Bronx River High School,BRONX    ,9 to 12,40.840702,-73.838545,187,58.1,0.461728395,14,63.1,0.034567901,89,55.2,0.219753086,164,59.8,0.404938272,61,57,0.150617284,17,56.8,0.041975309,NA,NA,NA,200,4,0,0.009876543,1,1,1,0,0.91,0.88,1,1,405,324,13,20,2712620,23197.99,High School,0.825,0,0
08X367,"Archimedes Academy for Math, Science and Technology Applications",BRONX    ,6 to 12,40.814833,-73.85658,NA,NA,NA,NA,NA,NA,NA,NA,NA,NA,NA,NA,NA,NA,NA,NA,NA,NA,NA,NA,NA,100,17,0,0.024781341,10,0,0,10,0.95,0.73,0.73,0.8,686,566,14,39,4568233,22582.45,High School,0.838,0,1
08X376,Antonia Pantoja Preparatory Academy: A College Board School,BRONX    ,6 to 12,40.82229,-73.856167,NA,NA,NA,NA,NA,NA,NA,NA,NA,NA,NA,NA,NA,NA,NA,NA,NA,NA,NA,NA,NA,100,10,0,0.024752475,NA,NA,NA,NA,0.92,0.64,0.73,0.64,404,329,2,34,2934442,24662.19,High School,0.832,0,1
08X405,Herbert H. Lehman High School,BRONX    ,9 to 12,40.840702,-73.838545,341,63.4,0.465846995,29,66.2,0.039617486,81,67.4,0.110655738,271,62.6,0.370218579,34,68.5,0.046448087,26,63.7,0.035519126,19,71.4,0.025956284,200,15,0,0.020491803,2,1,1,1,0.9,0.84,0.89,0.95,732,590,18,47,5131877,30441.54,High School,0.818,4,2
08X432,Bronx Bridges High School,BRONX    ,9 to 12,40.82229,-73.856167,191,65.1,0.560117302,11,72.6,0.032258065,68,59.5,0.19941349,219,59.1,0.642228739,48,53.1,0.140762463,NA,NA,NA,NA,NA,NA,100,7,0,0.020527859,NA,NA,NA,NA,0.97,0.91,0.82,0.91,341,272,19,13,2109834,25236.98,High School,0.85,0,NA
08X452,Gotham Collaborative High School,BRONX    ,9 to 12,40.82229,-73.856167,232,55.9,0.419529837,57,51.7,0.103074141,1,NA,0.001808318,205,59.5,0.370705244,80,52.2,0.144665461,NA,NA,NA,5,NA,0.009041591,100,11,0,0.019891501,1,1,1,0,0.93,0.93,0.87,0.73,553,474,16,39,3874840,27245.11,High School,0.877,1,0
08X519,"Felisa Rincon de Gautier Institute for Law and Public Policy, The",BRONX    ,9 to 12,40.820486,-73.881187,54,54.8,NA,1,NA,NA,2,NA,NA,29,52.2,NA,NA,NA,NA,2,NA,NA,NA,NA,NA,100,4,0,0.027027027,NA,NA,NA,NA,1,NA,NA,NA,NA,NA,NA,NA,NA,NA,High School,NA,0,0
08X530,Longwood Preparatory Academy,BRONX    ,9 to 12,40.817512,-73.898212,106,61.5,0.532663317,NA,NA,NA,24,46.6,0.120603015,93,60.9,0.467336683,27,51.6,0.135678392,7,47.7,0.035175879,NA,NA,NA,100,5,0,0.025125628,NA,NA,NA,NA,1,1,0.86,1,199,175,10,13,2448533,31559.85,High School,0.91,0,0
08X558,Westchester Square Academy,BRONX    ,9 to 12,40.840702,-73.838545,195,59.3,0.320197044,56,65.3,0.091954023,122,52,0.200328407,146,63.1,0.239737274,91,54.5,0.149425287,26,62.9,0.042692939,NA,NA,NA,200,8,0,0.013136289,NA,NA,NA,NA,0.45,NA,NA,NA,609,491,22,15,2979600,21427.62,High School,0.81,1,0
08X559,School for Tourism and Hospitality,BRONX    ,9 to 12,40.821675,-73.903546,134,52.9,0.439344262,3,NA,0.009836066,NA,NA,NA,102,56.2,0.33442623,NA,NA,NA,NA,NA,NA,NA,NA,NA,100,6,0,0.019672131,NA,NA,NA,NA,0.83,0.63,0.75,0.75,305,276,5,22,2233787,24808.27,High School,0.908,0,0
08X561,Bronx Compass High School,BRONX    ,9 to 12,40.82229,-73.856167,251,61.7,0.549234136,36,55.9,0.078774617,NA,NA,NA,132,60.9,0.288840263,14,63,0.030634573,22,57.1,0.048140044,NA,NA,NA,100,10,0,0.021881838,1,1,1,0,0.54,0.6,0.4,0.67,457,344,16,17,2366216,23121.79,High School,0.772,0,NA
09X227,Bronx Collegiate Academy,BRONX    ,9 to 12,40.840422,-73.91091,167,59.1,0.421717172,32,66.2,0.080808081,31,59.8,0.078282828,144,65,0.363636364,38,69.5,0.095959596,9,62.8,0.022727273,NA,NA,NA,100,7,0,0.017676768,NA,NA,NA,NA,0.96,1,1,1,396,338,4,23,2445153,26497.95,High School,0.864,1,NA
09X231,Eagle Academy for Young Men,BRONX    ,9 to 12,40.844958,-73.89705,NA,NA,NA,NA,NA,NA,NA,NA,NA,NA,NA,NA,NA,NA,NA,NA,NA,NA,NA,NA,NA,100,11,0,0.021526419,11,1,5,6,0.74,0.78,0.89,1,511,400,12,25,2937680,22710.38,High School,0.796,0,0
09X241,"Urban Assembly School for Applied Math and Science, The",BRONX    ,6 to 12,40.839244,-73.901316,NA,NA,NA,NA,NA,NA,NA,NA,NA,NA,NA,NA,NA,NA,NA,NA,NA,NA,NA,NA,NA,100,14,0,0.022727273,NA,NA,NA,NA,0.97,0.85,0.81,0.85,616,576,32,25,3893423,22379.49,High School,0.95,0,1
09X250,Eximius College Preparatory Academy: A College Board School,BRONX    ,9 to 12,40.833665,-73.902499,121,67.4,0.280092593,68,57.4,0.157407407,80,52.3,0.185185185,168,65.7,0.388888889,74,65.7,0.171296296,10,48,0.023148148,4,NA,0.009259259,100,9,0,0.020833333,NA,NA,NA,NA,0.97,0.9,1,1,432,358,6,24,2352660,22174.43,High School,0.84,1,0
09X252,Mott Hall Bronx High School,BRONX    ,9 to 12,40.839244,-73.901316,142,61.3,0.366925065,31,54.3,0.080103359,NA,NA,NA,165,73.1,0.426356589,NA,NA,NA,44,54.2,0.11369509,NA,NA,NA,100,5,0,0.012919897,NA,NA,NA,NA,0.93,0.89,0.88,0.89,387,357,13,13.7,1970552,21778.6,High School,0.925,0,0
09X260,Bronx Center for Science and Mathematics,BRONX    ,9 to 12,40.833665,-73.902499,87,76.8,0.187904968,83,70.5,0.179265659,128,70.8,0.276457883,106,72.9,0.228941685,85,72.2,0.183585313,84,73.6,0.181425486,43,68.4,0.09287257,100,10,0,0.021598272,2,1,1,1,1,1,1,0.91,463,398,5,25,2668202,20950.93,High School,0.862,3,2
09X263,Validus Preparatory Academy,BRONX    ,9 to 12,40.839244,-73.901316,188,58.2,0.505376344,NA,NA,NA,12,63.5,0.032258065,140,60.1,0.376344086,31,70.2,0.083333333,6,54.5,0.016129032,NA,NA,NA,100,6,0,0.016129032,NA,NA,NA,NA,0.85,0.75,1,1,372,322,7,19,2005450,23303.32,High School,0.892,0,0
09X297,Morris Academy for Collaborative Studies,BRONX    ,9 to 12,40.827642,-73.904473,221,63.3,0.551122195,50,68.7,0.124688279,16,66.9,0.039900249,157,63.1,0.391521197,83,64,0.206982544,3,NA,0.007481297,2,NA,0.004987531,100,11,0,0.027431421,1,1,1,0,0.97,1,1,1,401,378,11,25,3002690,25577.37,High School,0.95,0,2
09X324,Bronx Early College Academy for Teaching & Learning,BRONX    ,6 to 12,40.828696,-73.917668,NA,NA,NA,NA,NA,NA,NA,NA,NA,NA,NA,NA,NA,NA,NA,NA,NA,NA,NA,NA,NA,100,14,0,0.026819923,1,0,0,1,1,1,0.95,1,522,459,17,21,2679013,22732.98,High School,0.897,0,1
09X327,Comprehensive Model School Project M.S. 327,BRONX    ,6 to 12,40.842495,-73.916082,NA,NA,NA,NA,NA,NA,NA,NA,NA,NA,NA,NA,NA,NA,NA,NA,NA,NA,NA,NA,NA,100,17,0,0.023160763,NA,NA,NA,NA,0.86,0.93,0.8,1,734,668,11.7,36,4180470,20970.5,High School,0.918,1,0
09X329,DreamYard Preparatory School,BRONX    ,9 to 12,40.840422,-73.91091,136,56.3,NA,32,54.5,NA,32,49.8,NA,127,60,NA,49,55.4,NA,15,48.2,NA,11,33.3,NA,100,5,1,0.018796992,2,1,2,0,1,1,1,1,NA,NA,NA,NA,NA,NA,High School,0.861,0,0
09X350,New Directions Secondary School,BRONX    ,6 to 12,40.840422,-73.91091,NA,NA,NA,NA,NA,NA,NA,NA,NA,NA,NA,NA,NA,NA,NA,NA,NA,NA,NA,NA,NA,100,7,0,0.02991453,NA,NA,NA,NA,1,0.8,0.8,0.8,234,224,11,14,1879843,34087.65,High School,0.95,0,0
09X365,Academy for Language and Technology,BRONX    ,9 to 12,40.849623,-73.91607,290,67.6,0.897832817,16,65,0.049535604,4,NA,0.012383901,144,66,0.445820433,51,67.1,0.157894737,NA,NA,NA,NA,NA,NA,100,9,0,0.027863777,5,0,1,4,1,1,0.86,0.86,323,312,17,8,1599600,22234.16,High School,0.95,1,NA
09X403,Bronx International High School,BRONX    ,9 to 12,40.827642,-73.904473,NA,NA,NA,NA,NA,NA,NA,NA,NA,NA,NA,NA,NA,NA,NA,NA,NA,NA,NA,NA,NA,100,10,1,0.024154589,NA,NA,NA,NA,0.77,1,1,1,414,365,3,28,2952700,25275.83,High School,0.95,0,0
09X404,School for Excellence,BRONX    ,9 to 12,40.827642,-73.904473,92,62.1,0.245333333,4,NA,0.010666667,7,59.1,0.018666667,98,63.5,0.261333333,NA,NA,NA,NA,NA,NA,NA,NA,NA,100,6,0,0.016,NA,NA,NA,NA,0.92,0.86,0.86,0.86,375,321,2.5,22.7,2106995,25838.94,High School,0.861,0,0
09X412,Bronx High School of Business,BRONX    ,9 to 12,40.840422,-73.91091,166,59.4,0.584507042,3,NA,0.01056338,39,47.7,0.137323944,71,55.6,0.25,82,48.2,0.288732394,9,56.3,0.031690141,NA,NA,NA,100,7,0,0.024647887,NA,NA,NA,NA,1,0.88,0.88,0.88,284,248,11,17,2385119,32386.42,High School,0.898,0,NA
09X413,Bronx High School for Medical Science,BRONX    ,6 to 12,40.840422,-73.91091,NA,NA,NA,NA,NA,NA,NA,NA,NA,NA,NA,NA,NA,NA,NA,NA,NA,NA,NA,NA,NA,100,11,0,0.025404157,NA,NA,NA,NA,1,1,1,1,433,361,10,23,2853695,23763.35,High School,0.848,0,0
09X505,"Bronx School for Law, Government and Justice",BRONX    ,7 to 12,40.827607,-73.918681,NA,NA,NA,NA,NA,NA,NA,NA,NA,NA,NA,NA,NA,NA,NA,NA,NA,NA,NA,NA,NA,100,13,1,0.016861219,5,0,0,5,0.83,0.94,0.88,0.88,771,693,35.7,27,4903932,21785.68,High School,0.909,0,0
09X517,Frederick Douglass Academy III Secondary School,BRONX    ,9 to 12,40.833511,-73.90449,197,59.3,0.464622642,22,54.8,0.051886792,52,48.9,0.122641509,171,61.1,0.403301887,72,60.1,0.169811321,50,55.7,0.117924528,NA,NA,NA,100,8,0,0.018867925,NA,NA,NA,NA,1,0.89,0.89,0.89,424,368,11,19,2701228,22671.75,High School,0.875,1,1
09X525,Bronx Leadership Academy High School,BRONX    ,9 to 12,40.843588,-73.903236,241,57.2,0.413379074,60,43.2,0.102915952,17,41.8,0.02915952,151,61.1,0.259005146,2,NA,0.003430532,2,NA,0.003430532,NA,NA,NA,100,11,0,0.018867925,NA,NA,NA,NA,0.47,0.8,0.7,0.7,583,509,21,20,3108293,23545.24,High School,0.877,1,0
09X543,High School for Violin and Dance,BRONX    ,9 to 12,40.827642,-73.904473,101,55.9,0.382575758,2,NA,0.007575758,NA,NA,NA,93,61.8,0.352272727,NA,NA,NA,3,NA,0.011363636,NA,NA,NA,100,4,0,0.015151515,NA,NA,NA,NA,0.8,0.8,1,0.8,264,255,1.2,17,1549492,25029.73,High School,0.95,0,0
09X564,Claremont International High School,BRONX    ,9 to 12,40.840422,-73.91091,203,56.5,0.531413613,NA,NA,NA,NA,NA,NA,NA,NA,NA,NA,NA,NA,NA,NA,NA,NA,NA,NA,100,8,0,0.020942408,NA,NA,NA,NA,0.9,1,1,1,382,361,7.7,20.5,2136974,22400.8,High School,0.95,0,0
09X568,Young Women's Leadership School of the Bronx (TYWLS),BRONX    ,6 to 12,40.848516,-73.908427,NA,NA,NA,NA,NA,NA,NA,NA,NA,NA,NA,NA,NA,NA,NA,NA,NA,NA,NA,NA,NA,100,9,0,0.019354839,5,1,5,0,0.97,0.87,0.93,0.93,465,401,15,22,3097121,20733.45,High School,0.873,0,0
10X141,Riverdale / Kingsbridge Academy (Middle School / High School 141) (RKA),BRONX    ,6 to 12,40.888338,-73.913486,NA,NA,NA,NA,NA,NA,NA,NA,NA,NA,NA,NA,NA,NA,NA,NA,NA,NA,NA,NA,NA,100,26,0,0.017184402,NA,NA,NA,NA,0.66,0.94,0.89,0.89,1513,778,12,82,8860582,19073.12,High School,0.529,2,1
10X213,Bronx Engineering and Technology Academy,BRONX    ,9 to 12,40.877105,-73.912256,201,58.7,0.503759398,21,51,0.052631579,63,48.2,0.157894737,134,60.6,0.335839599,62,64.3,0.155388471,1,NA,0.002506266,NA,NA,NA,200,10,0,0.025062657,3,1,2,1,0.6,0.83,1,0.83,399,364,2,27,2632410,24246.29,High School,0.915,2,2
10X225,Theater Arts Production Company School (TAPCo),BRONX    ,6 to 12,40.854493,-73.896717,NA,NA,NA,NA,NA,NA,NA,NA,NA,NA,NA,NA,NA,NA,NA,NA,NA,NA,NA,NA,NA,100,9,0,0.014802632,NA,NA,NA,NA,0.94,1,1,1,608,485,11,35,3972625,21876.73,High School,0.811,0,NA
10X237,"The Marie Curie School for Medicine, Nursing, and Health Professions",BRONX    ,9 to 12,40.875911,-73.901099,168,60.5,0.343558282,29,55.9,0.059304703,18,51.4,0.036809816,131,64.6,0.267893661,51,70.5,0.104294479,9,48.7,0.018404908,NA,NA,NA,100,9,0,0.018404908,NA,NA,NA,NA,1,0.8,0.8,0.8,489,382,7.5,27,2762929,22290.41,High School,0.798,1,0
10X243,West Bronx Academy for the Future,BRONX    ,6 to 12,40.860043,-73.888267,NA,NA,NA,NA,NA,NA,NA,NA,NA,NA,NA,NA,NA,NA,NA,NA,NA,NA,NA,NA,NA,100,11,0,0.018121911,NA,NA,NA,NA,0.76,1,0.89,1,607,574,14,31,4120811,23973.19,High School,0.946,0,NA
10X264,Bronx Academy for Software Engineering (BASE),BRONX    ,9 to 12,40.855698,-73.882715,136,63.5,0.319248826,22,63.2,0.051643192,52,55.3,0.122065728,142,61.8,0.333333333,25,63.6,0.058685446,1,NA,0.002347418,19,64.6,0.044600939,200,8,0,0.018779343,2,2,2,0,0.89,0.86,0.71,0.86,426,300,12,25,2826972,24311.44,High School,0.721,2,1
10X268,Kingsbridge International High School,BRONX    ,9 to 12,40.870293,-73.898309,176,60.4,0.374468085,20,72.2,0.042553191,50,55.5,0.106382979,133,58.4,0.282978723,69,50.8,0.146808511,NA,NA,NA,NA,NA,NA,200,6,0,0.012765957,NA,NA,NA,NA,1,0.9,0.89,0.89,470,414,6,21,2781630,22521.76,High School,0.95,0,NA
10X284,Bronx School of Law and Finance,BRONX    ,9 to 12,40.877105,-73.912256,202,61.9,0.531578947,4,NA,0.010526316,17,55.8,0.044736842,153,64.8,0.402631579,NA,NA,NA,22,52.3,0.057894737,5,NA,0.013157895,200,7,0,0.018421053,NA,NA,NA,NA,0.43,1,1,0.83,380,322,3.2,23,2201950,24619.94,High School,0.876,2,0
10X342,International School for Liberal Arts,BRONX    ,6 to 12,40.870293,-73.898309,NA,NA,NA,NA,NA,NA,NA,NA,NA,NA,NA,NA,NA,NA,NA,NA,NA,NA,NA,NA,NA,200,9,1,0.017208413,4,0,4,0,1,0.93,0.93,0.92,523,510,9,35,3905234,24314.9,High School,0.95,1,0
10X351,Bronx Collaborative High School,BRONX    ,9 to 12,40.882178,-73.88691,4,NA,0.007233273,NA,NA,NA,NA,NA,NA,NA,NA,NA,NA,NA,NA,NA,NA,NA,NA,NA,NA,200,10,0,0.018083183,NA,NA,NA,NA,0.84,0.92,0.83,0.92,553,465,15.9,28.5,3632506,22421.47,High School,0.848,0,0
10X353,World View High School,BRONX    ,9 to 12,40.882178,-73.88691,206,62.2,0.416161616,78,52.3,0.157575758,143,51.8,0.288888889,164,70.4,0.331313131,94,54.5,0.18989899,45,56.4,0.090909091,NA,NA,NA,200,12,0,0.024242424,NA,NA,NA,NA,0.83,1,0.93,1,495,397,22,17,3240035,22492.06,High School,0.824,1,0
10X368,In-Tech Academy (M.S. / High School 368),BRONX    ,6 to 12,40.879368,-73.909896,NA,NA,NA,NA,NA,NA,NA,NA,NA,NA,NA,NA,NA,NA,NA,NA,NA,NA,NA,NA,NA,100,17,0,0.016949153,4,1,1,3,0.96,0.88,0.88,0.88,1003,866,8.2,59,6254045,21316.84,High School,0.871,2,1
10X374,Knowledge and Power Preparatory Academy International High School (KAPPA),BRONX    ,9 to 12,40.860043,-73.888267,146,65.2,0.299180328,39,69,0.079918033,135,58.2,0.276639344,160,68.8,0.327868852,109,67.1,0.223360656,31,61.1,0.06352459,5,NA,0.010245902,100,9,0,0.018442623,2,1,1,1,0.95,1,0.83,0.92,488,447,15,23,2831912,22902.48,High School,0.924,1,0
10X433,High School for Teaching and the Professions,BRONX    ,9 to 12,40.870293,-73.898309,154,57.7,0.344519016,25,54.8,0.055928412,93,48.3,0.208053691,128,56.5,0.286353468,101,51.2,0.225950783,NA,NA,NA,NA,NA,NA,200,6,0,0.013422819,NA,NA,NA,NA,0.82,0.86,1,1,447,402,2,30,3162089,27054.14,High School,0.917,1,NA
10X434,Belmont Preparatory High School,BRONX    ,9 to 12,40.860043,-73.888267,160,62.7,0.39800995,47,64,0.116915423,91,56.7,0.226368159,107,67.2,0.266169154,75,70.3,0.186567164,43,56.8,0.106965174,18,55.9,0.044776119,100,9,0,0.02238806,1,1,1,0,0.73,0.83,0.83,0.83,402,353,5,22,2627459,23207.6,High School,0.881,1,0
10X437,Fordham High School for the Arts,BRONX    ,9 to 12,40.860043,-73.888267,148,65.7,0.415730337,123,61.7,0.345505618,45,59.2,0.126404494,122,70.1,0.342696629,NA,NA,NA,83,57.6,0.233146067,58,48.6,0.162921348,100,8,0,0.02247191,1,1,1,0,1,0.78,0.78,0.78,356,316,19,10,2200772,23841.59,High School,0.896,2,0
10X438,Fordham Leadership Academy,BRONX    ,9 to 12,40.860043,-73.888267,209,60.8,0.611111111,37,57.5,0.108187135,63,56.3,0.184210526,146,56.8,0.426900585,64,50.5,0.187134503,19,52.4,0.055555556,NA,NA,NA,100,6,0,0.01754386,2,0,1,1,0.93,1,1,1,342,288,18,10,2573375,28288.59,High School,0.863,1,NA
10X439,Bronx High School for Law and Community Service,BRONX    ,9 to 12,40.860043,-73.888267,133,65.7,0.325183374,32,62,0.078239609,34,59,0.083129584,132,62.7,0.322738386,85,64.6,0.207823961,NA,NA,NA,NA,NA,NA,100,8,0,0.019559902,NA,NA,NA,NA,0.83,1,1,1,409,370,5,25,2643874,23999.01,High School,0.917,0,1
10X440,DeWitt Clinton High School,BRONX    ,9 to 12,40.882178,-73.88691,486,61,NA,125,67.5,NA,187,62.3,NA,328,59.5,NA,197,54.3,NA,48,62.6,NA,24,73.9,NA,200,22,0,0.018287614,2,0,0,2,0.76,0.56,0.59,0.56,NA,NA,NA,NA,NA,NA,High School,0.896,1,0
10X442,"Celia Cruz Bronx High School of Music, The",BRONX    ,9 to 12,40.870293,-73.898309,112,65.4,0.262295082,175,59.8,0.409836066,53,55.4,0.12412178,122,67.5,0.285714286,127,69.4,0.297423888,32,56.4,0.074941452,NA,NA,NA,200,7,0,0.016393443,NA,NA,NA,NA,0.76,0.8,0.8,0.6,427,373,10,22,2583990,24365.88,High School,0.878,0,0
10X445,Bronx High School of Science,BRONX    ,9 to 12,40.87759,-73.89104,125,90.5,NA,764,89,NA,710,88.7,NA,436,92.3,NA,NA,NA,NA,755,87.8,NA,756,89,NA,400,66,1,0.022036728,1,1,1,0,0.84,0.98,0.93,0.98,NA,NA,NA,NA,NA,NA,High School,0.46,8,5
10X477,Marble Hill High School for International Studies,BRONX    ,9 to 12,40.877105,-73.912256,135,69.4,0.308924485,91,72.4,0.208237986,158,65.3,0.361556064,134,71.6,0.306636156,NA,NA,NA,100,64.4,0.228832952,23,57.8,0.052631579,200,10,0,0.022883295,NA,NA,NA,NA,0.97,1,1,1,437,396,4,24,2583645,21676.91,High School,0.918,2,0
10X524,Crotona International High School,BRONX    ,9 to 12,40.855698,-73.882715,180,62,0.537313433,NA,NA,NA,NA,NA,NA,NA,NA,NA,NA,NA,NA,NA,NA,NA,NA,NA,NA,200,9,1,0.026865672,NA,NA,NA,NA,1,0.88,0.88,0.75,335,264,16.5,10,2180053,24461.28,High School,0.869,0,NA
10X546,Bronx Theatre High School,BRONX    ,9 to 12,40.877105,-73.912256,111,62,0.285347044,21,59.2,0.053984576,12,59.9,0.030848329,119,59.7,0.305912596,36,56.9,0.092544987,17,48.6,0.043701799,NA,NA,NA,200,5,0,0.01285347,NA,NA,NA,NA,0.92,1,NA,1,389,332,3,20,2220320,22477.95,High School,0.871,0,1
10X549,Discovery High School,BRONX    ,9 to 12,40.870293,-73.898309,120,70.4,0.263157895,72,75.3,0.157894737,55,65.7,0.120614035,81,70.6,0.177631579,114,76.1,0.25,3,NA,0.006578947,NA,NA,NA,200,10,0,0.021929825,NA,NA,NA,NA,0.66,1,0.86,1,456,407,14,22,2691018,24341.03,High School,0.904,1,NA
10X565,High School for Energy and Technology,BRONX    ,9 to 12,40.855698,-73.882715,116,63.3,0.282926829,18,60.7,0.043902439,48,53.4,0.117073171,108,66,0.263414634,33,62.9,0.080487805,18,50.1,0.043902439,NA,NA,NA,200,6,0,0.014634146,1,0,0,1,1,0.88,1,1,410,337,14,17,2573007,24156.45,High School,0.832,0,0
10X696,High School of American Studies at Lehman College,BRONX    ,9 to 12,40.873938,-73.895382,52,86.3,0.13,101,85.7,0.2525,106,83.7,0.265,89,92.6,0.2225,NA,NA,NA,109,84,0.2725,98,88.5,0.245,50,8,0,0.02,NA,NA,NA,NA,0.88,1,1,1,400,81,2,23,2432400,19810.38,High School,0.215,2,3
11X249,Bronx Health Sciences High School,BRONX    ,9 to 12,40.874091,-73.833904,141,59.5,0.447619048,77,52.2,0.244444444,101,53.6,0.320634921,114,69.7,0.361904762,NA,NA,NA,85,53.7,0.26984127,66,47.8,0.20952381,200,7,0,0.022222222,NA,NA,NA,NA,0.8,0.8,0.8,1,315,224,2,17,1979439,21592.6,High School,0.727,0,2
11X253,Bronx High School for Writing and Communication Arts,BRONX    ,9 to 12,40.875953,-73.86197,161,59.6,0.476331361,2,NA,0.00591716,20,53.8,0.059171598,131,60.5,0.387573964,NA,NA,NA,15,55.1,0.044378698,NA,NA,NA,200,5,0,0.014792899,NA,NA,NA,NA,0.88,1,1,1,338,229,6,17,1930194,22310.45,High School,0.719,0,NA
11X265,Bronx Lab School,BRONX    ,9 to 12,40.875953,-73.86197,1,NA,0.002506266,NA,NA,NA,NA,NA,NA,NA,NA,NA,NA,NA,NA,NA,NA,NA,NA,NA,NA,200,8,0,0.020050125,NA,NA,NA,NA,1,0.92,1,1,399,334,7,23,2822708,25618.3,High School,0.85,0,0
11X270,Academy for Scholarship and Entrepreneurship: A College Board School,BRONX    ,9 to 12,40.887831,-73.852694,186,57.6,0.4933687,18,56.1,0.047745358,3,NA,0.00795756,106,61.6,0.281167109,72,61.9,0.190981432,NA,NA,NA,NA,NA,NA,200,7,0,0.018567639,NA,NA,NA,NA,0.8,0.86,1,1,377,299,5,22,2637694,25718.04,High School,0.809,2,0
11X275,High School of Computers and Technology,BRONX    ,9 to 12,40.875953,-73.86197,177,63.8,0.311072056,24,72.5,0.042179262,50,67.3,0.087873462,157,67.7,0.275922671,82,71.1,0.144112478,NA,NA,NA,17,53.1,0.029876977,200,8,0,0.014059754,NA,NA,NA,NA,0.95,1,1,1,569,432,5.5,29,3235459,22943.71,High School,0.782,0,NA
11X288,Collegiate Institute for Math and Science (CIMS),BRONX    ,9 to 12,40.859665,-73.861006,184,68.5,0.298701299,92,73.8,0.149350649,142,66,0.230519481,136,69.5,0.220779221,90,68.3,0.146103896,69,69.3,0.112012987,16,46.4,0.025974026,200,11,0,0.017857143,1,1,1,0,0.82,1,1,1,616,436,7,29,3008734,19325.89,High School,0.718,3,2
11X290,Bronx Academy of Health Careers,BRONX    ,9 to 12,40.875953,-73.86197,223,60.2,0.564556962,5,NA,0.012658228,65,53,0.164556962,128,64.9,0.324050633,58,61.6,0.146835443,17,65.3,0.043037975,NA,NA,NA,200,9,0,0.02278481,NA,NA,NA,NA,0.83,0.78,0.8,0.78,395,317,7,20,2445899,23107.09,High School,0.83,1,1
11X299,Astor Collegiate Academy,BRONX    ,9 to 12,40.859665,-73.861006,193,61.6,0.405462185,109,65.7,0.228991597,41,60.9,0.086134454,135,67.2,0.283613445,64,52.3,0.134453782,33,72.8,0.069327731,NA,NA,NA,200,9,0,0.018907563,NA,NA,NA,NA,0.75,0.83,0.5,1,476,352,8,22,2599337,21469.24,High School,0.754,0,1
11X418,Bronx High School for the Visual Arts,BRONX    ,9 to 12,40.851405,-73.865036,184,61.8,0.41723356,22,62.2,0.049886621,73,57.8,0.16553288,120,66.5,0.272108844,24,64,0.054421769,NA,NA,NA,16,48.3,0.036281179,100,8,0,0.01814059,NA,NA,NA,NA,0.79,0.71,0.57,0.71,441,362,3.7,29,3169275,26611.06,High School,0.83,0,0
11X455,Harry S Truman High School,BRONX    ,9 to 12,40.874091,-73.833904,728,63.8,0.364,108,71.8,0.054,158,61.7,0.079,703,66.1,0.3515,134,69.7,0.067,63,67.3,0.0315,14,60.9,0.007,200,29,0,0.0145,NA,NA,NA,NA,0.63,1,0.92,1,2000,1449,25,95,10746984,21311.67,High School,0.742,3,1
11X508,Bronxdale High School,BRONX    ,9 to 12,40.859665,-73.861006,196,57.5,0.432671082,12,61.3,0.026490066,38,51.6,0.08388521,115,63.7,0.253863135,107,54.3,0.236203091,7,54.6,0.015452539,NA,NA,NA,200,9,0,0.01986755,NA,NA,NA,NA,1,1,1,1,453,392,18,22,2947118,26312.77,High School,0.87,0,NA
11X509,High School of Language and Innovation,BRONX    ,9 to 12,40.859665,-73.861006,159,67.8,0.438016529,25,74.2,0.068870523,89,64.3,0.245179063,118,65.3,0.325068871,67,64.6,0.184573003,14,72.8,0.038567493,NA,NA,NA,200,8,0,0.022038567,NA,NA,NA,NA,0.69,1,0.83,0.83,363,353,9,20,2366238,25503.04,High School,0.95,0,0
11X513,New World High School,BRONX    ,9 to 12,40.887831,-73.852694,244,69.9,0.605459057,111,67.2,0.275434243,26,60.7,0.064516129,169,57.8,0.419354839,83,62.9,0.205955335,15,59.7,0.037220844,6,44,0.014888337,200,11,0,0.027295285,NA,NA,NA,NA,0.92,1,1,1,403,389,6,18,1967074,21614.27,High School,0.95,0,NA
11X514,The Bronxwood Preparatory Academy,BRONX    ,9 to 12,40.887831,-73.852694,175,63,0.432098765,10,55.5,0.024691358,29,55.5,0.071604938,148,60.3,0.365432099,61,56.7,0.150617284,NA,NA,NA,NA,NA,NA,200,6,0,0.014814815,NA,NA,NA,NA,0.75,0.8,0.8,0.8,405,282,6.9,19,2206047,21468.53,High School,0.721,0,NA
11X542,Pelham Preparatory Academy,BRONX    ,9 to 12,40.859665,-73.861006,193,60,0.385229541,53,55.7,0.105788423,116,58.6,0.231536926,150,64.5,0.299401198,74,68.2,0.147704591,25,62.8,0.0499002,NA,NA,NA,200,9,0,0.017964072,NA,NA,NA,NA,0.9,1,0.78,0.89,501,362,6,22,2469414,20387.29,High School,0.731,2,0
11X544,High School for Contemporary Arts,BRONX    ,9 to 12,40.875953,-73.86197,244,61,0.547085202,67,54.1,0.150224215,38,58.2,0.085201794,209,59.8,0.468609865,71,68.3,0.159192825,21,57,0.047085202,12,72.3,0.02690583,200,7,0,0.015695067,2,0,1,1,0.79,1,1,1,446,337,3.1,26,2850543,23413.06,High School,0.778,0,1
11X545,Bronx Aerospace High School,BRONX    ,9 to 12,40.875953,-73.86197,146,57.1,0.421965318,9,46.4,0.026011561,15,55.2,0.043352601,118,61.8,0.341040462,20,76.1,0.057803468,9,59.2,0.026011561,NA,NA,NA,200,7,0,0.020231214,NA,NA,NA,NA,0.97,1,1,1,346,261,6,22,2223604,27989.85,High School,0.775,0,NA
12X242,Mott Hall V,BRONX    ,6 to 12,40.831416,-73.877785,NA,NA,NA,NA,NA,NA,NA,NA,NA,NA,NA,NA,NA,NA,NA,NA,NA,NA,NA,NA,NA,100,12,0,0.017595308,NA,NA,NA,NA,0.95,0.92,0.75,0.67,682,578,18,38,4330746,22496.04,High School,0.87,0,0
12X248,"Metropolitan High School, The",BRONX    ,9 to 12,40.827315,-73.897612,92,53.7,0.223844282,1,NA,0.00243309,35,53.1,0.085158151,87,62.3,0.211678832,41,54.2,0.099756691,1,NA,0.00243309,NA,NA,NA,100,11,0,0.02676399,NA,NA,NA,NA,0.83,0.67,0.67,0.67,411,392,17.2,21,3136751,28122.9,High School,0.95,0,NA
12X251,Explorations Academy,BRONX    ,9 to 12,40.8359,-73.890458,142,60.4,0.404558405,26,65.3,0.074074074,28,62.7,0.07977208,118,62.1,0.336182336,25,55.3,0.071225071,41,53.8,0.116809117,NA,NA,NA,100,6,0,0.017094017,NA,NA,NA,NA,0.96,1,0.63,0.88,351,327,10,15,1973927,23173.11,High School,0.94,1,1
12X267,Bronx Latin,BRONX    ,6 to 12,40.827743,-73.900105,NA,NA,NA,NA,NA,NA,NA,NA,NA,NA,NA,NA,NA,NA,NA,NA,NA,NA,NA,NA,NA,100,12,0,0.020725389,1,0,0,1,0.98,0.95,0.9,0.95,579,546,21,27,3912063,22187,High School,0.948,2,0
12X271,East Bronx Academy for the Future,BRONX    ,6 to 12,40.836356,-73.888361,NA,NA,NA,NA,NA,NA,NA,NA,NA,NA,NA,NA,NA,NA,NA,NA,NA,NA,NA,NA,NA,100,14,0,0.020864382,1,0,0,1,0.52,0.91,0.91,0.91,671,616,17,44,4710347,24637.57,High School,0.927,0,2
12X321,Crotona Academy High School,BRONX    ,"School is structured on credit needs, not grade level",40.829306,-73.892243,60,56.2,NA,NA,NA,NA,34,52.6,NA,47,61.7,NA,20,47.7,NA,NA,NA,NA,NA,NA,NA,100,4,0,0.03125,NA,NA,NA,NA,0.92,NA,NA,NA,NA,NA,NA,NA,NA,NA,High School,NA,0,NA
12X372,Urban Assembly School for Wildlife Conservation,BRONX    ,6 to 12,40.843781,-73.884192,NA,NA,NA,NA,NA,NA,NA,NA,NA,NA,NA,NA,NA,NA,NA,NA,NA,NA,NA,NA,NA,100,12,0,0.025369979,NA,NA,NA,NA,0,NA,NA,NA,NA,NA,NA,NA,NA,NA,High School,NA,0,NA
12X388,Pan American International High School at Monroe,BRONX    ,9 to 12,40.831601,-73.878912,127,67.4,0.265690377,NA,NA,NA,NA,NA,NA,NA,NA,NA,NA,NA,NA,NA,NA,NA,NA,NA,NA,100,11,0,0.023012552,NA,NA,NA,NA,1,1,1,1,478,448,15.2,19,2787560,22721.5,High School,0.95,0,0
12X478,The Cinema School,BRONX    ,9 to 12,40.831416,-73.877785,84,68.4,0.289655172,61,54,0.210344828,88,61.3,0.303448276,82,70.6,0.282758621,78,66.1,0.268965517,54,58.6,0.186206897,2,NA,0.006896552,100,6,0,0.020689655,NA,NA,NA,NA,0.96,NA,NA,NA,290,249,10,13,1489719,21194.81,High School,0.866,0,0
12X479,Bronx Career and College Preparatory High School,BRONX    ,9 to 12,40.827743,-73.900105,108,57.6,0.42519685,9,52.1,0.035433071,63,41.5,0.248031496,56,58.9,0.220472441,52,53.4,0.204724409,13,58.2,0.051181102,NA,NA,NA,100,6,0,0.023622047,NA,NA,NA,NA,0.92,0.78,0.67,0.78,254,224,8,16,1619340,27889.57,High School,0.902,0,0
12X511,Bronx Envision Academy,BRONX    ,9 to 12,40.8359,-73.890458,213,56.9,0.496503497,21,66.4,0.048951049,34,56,0.079254079,191,59.4,0.445221445,80,54.3,0.186480186,17,58.1,0.03962704,NA,NA,NA,100,7,0,0.016317016,1,1,1,0,0.81,1,1,1,429,379,11,21,2727106,23221.95,High School,0.9,2,0
12X521,The Metropolitan Soundview High School,BRONX    ,9 to 12,40.831601,-73.878912,116,61,0.27039627,20,61.8,0.046620047,92,53.8,0.214452214,123,64.9,0.286713287,74,65.8,0.172494172,2,NA,0.004662005,NA,NA,NA,100,12,0,0.027972028,NA,NA,NA,NA,0.74,0.89,0.78,0.78,429,414,8.2,28,2945225,24257.11,High School,0.95,1,0
12X550,High School of World Cultures,BRONX    ,9 to 12,40.831601,-73.878912,261,61.3,0.582589286,103,55.2,0.229910714,9,58.6,0.020089286,69,58.8,0.154017857,201,53.2,0.448660714,NA,NA,NA,24,41.6,0.053571429,100,8,0,0.017857143,NA,NA,NA,NA,0.91,0.57,0.71,0.71,448,425,15,15,2750511,22674.66,High School,0.95,0,0
12X682,Fannie Lou Hamer Freedom High School,BRONX    ,9 to 12,40.83087,-73.88626,4,NA,0.00845666,NA,NA,NA,NA,NA,NA,2,NA,0.00422833,NA,NA,NA,NA,NA,NA,NA,NA,NA,100,11,0,0.023255814,2,0,1,1,0.94,0.91,0.91,0.91,473,395,8.3,26,2982444,24852.97,High School,0.848,0,0
12X684,Wings Academy,BRONX    ,9 to 12,40.841794,-73.875366,157,59,0.319755601,1,NA,0.00203666,10,61.1,0.020366599,179,57,0.364562118,42,55.7,0.085539715,1,NA,0.00203666,NA,NA,NA,100,8,0,0.016293279,1,1,1,0,0.52,NA,NA,NA,491,431,6,26,3021736,22414.41,High School,0.884,1,NA
13K265,Dr. Susan S. McKinney Secondary School of the Arts,BROOKLYN ,6 to 12,40.696324,-73.97578,NA,NA,NA,NA,NA,NA,NA,NA,NA,NA,NA,NA,NA,NA,NA,NA,NA,NA,NA,NA,NA,100,9,0,0.024324324,5,0,5,0,0.79,1,1,1,370,339,1,35,3292390,26900.52,High School,0.922,0,NA
13K350,Urban Assembly High School of Music and Art,BROOKLYN ,9 to 12,40.697339,-73.985016,116,56,NA,NA,NA,NA,12,43,NA,84,64,NA,NA,NA,NA,NA,NA,NA,NA,NA,NA,50,3,0,0.013574661,NA,NA,NA,NA,0.79,NA,NA,NA,NA,NA,NA,NA,NA,NA,High School,0.873,0,0
13K412,Brooklyn Community Arts & Media High School (BCAM),BROOKLYN ,9 to 12,40.692642,-73.958794,201,62.9,0.472941176,42,57,0.098823529,115,49,0.270588235,172,60.8,0.404705882,67,57.1,0.157647059,12,40.5,0.028235294,NA,NA,NA,100,8,0,0.018823529,NA,NA,NA,NA,0.9,1,1,1,425,373,7.7,24,2748117,22499.59,High School,0.889,0,0
13K419,"Science Skills Center High School for Science, Technology and the Creative Arts",BROOKLYN ,9 to 12,40.697339,-73.985016,253,66.8,0.450177936,127,66.5,0.225978648,39,56.6,0.069395018,116,68.9,0.206405694,95,65.9,0.169039146,64,63.1,0.113879004,15,64.5,0.026690391,50,14,1,0.024911032,6,2,3,3,0.85,1,1,1,562,457,10.5,27,3093411,20140.33,High School,0.824,3,2
13K430,Brooklyn Technical High School,BROOKLYN ,9 to 12,40.688834,-73.976905,355,87.2,0.060808496,1541,87.1,0.26396026,1571,86.7,0.269099007,770,91.3,0.131894484,NA,NA,NA,1535,83.2,0.262932511,1681,82.9,0.287941076,400,119,0,0.020383693,8,2,4,4,0.49,0.96,0.93,1,5838,3548,28,237,26216253,16405.32,High School,0.626,8,3
13K439,Brooklyn International High School,BROOKLYN ,9 to 12,40.697339,-73.985016,NA,NA,NA,NA,NA,NA,NA,NA,NA,NA,NA,NA,NA,NA,NA,NA,NA,NA,NA,NA,NA,50,8,0,0.02259887,NA,NA,NA,NA,1,1,1,1,354,273,5,20,2141636,22323.33,High School,0.816,0,2
13K483,The Urban Assembly School for Law and Justice,BROOKLYN ,9 to 12,40.694682,-73.988853,178,60.6,0.396436526,4,NA,0.008908686,28,61,0.062360802,94,71.8,0.20935412,5,NA,0.011135857,NA,NA,NA,NA,NA,NA,40,9,0,0.020044543,NA,NA,NA,NA,0.97,0.92,0.83,0.83,449,346,7.7,23,2452141,20733.69,High School,0.784,1,0
13K499,ACORN Community High School,BROOKLYN ,9 to 12,40.678488,-73.962105,41,65.7,NA,7,42.7,NA,37,51.3,NA,31,56.5,NA,28,45.1,NA,11,56.9,NA,NA,NA,NA,100,5,0,0.025906736,2,1,1,1,0.71,NA,NA,NA,NA,NA,NA,NA,NA,NA,High School,0.834,1,1
13K527,Urban Assembly Institute of Math and Science for Young Women,BROOKLYN ,6 to 12,40.694682,-73.988853,NA,NA,NA,NA,NA,NA,NA,NA,NA,NA,NA,NA,NA,NA,NA,NA,NA,NA,NA,NA,NA,40,10,0,0.020833333,NA,NA,NA,NA,1,1,0.8,0.9,480,407,14,23,2987336,20222.82,High School,0.858,0,2
13K595,Bedford Academy High School,BROOKLYN ,9 to 12,40.68538,-73.954302,51,77.1,0.14010989,89,72.5,0.244505495,22,79.4,0.06043956,58,80.1,0.159340659,27,82.6,0.074175824,30,71.3,0.082417582,8,73.1,0.021978022,100,8,0,0.021978022,1,1,1,0,1,1,1,1,364,260,4,18,2018148,20486.63,High School,0.742,5,NA
13K605,George Westinghouse Career and Technical Education High School,BROOKLYN ,9 to 12,40.694926,-73.986015,308,62.8,0.407407407,63,56.2,0.083333333,161,55.2,0.212962963,314,58.2,0.415343915,NA,NA,NA,49,57.1,0.064814815,11,61.2,0.014550265,100,14,0,0.018518519,1,1,1,0,0.87,0.73,0.73,0.82,756,603,16,36,4950536,23711.98,High School,0.808,2,1
13K670,Benjamin Banneker Academy,BROOKLYN ,9 to 12,40.695332,-73.969243,406,68.9,0.481042654,137,65.1,0.162322275,261,59.4,0.309241706,205,67.8,0.242890995,207,66.1,0.245260664,4,NA,0.004739336,36,57.3,0.042654028,100,13,0,0.015402844,NA,NA,NA,NA,0.52,0.83,0.8,1,844,573,7,37,4469632,19045.07,High School,0.698,4,2
13K674,"City Polytechnic High School of Engineering, Architecture, and Technology",BROOKLYN ,9 to 12,40.694926,-73.986015,106,58.9,0.241457859,67,50.6,0.15261959,103,55.9,0.234624146,112,64.6,0.255125285,102,67.6,0.232346241,3,NA,0.006833713,NA,NA,NA,100,8,0,0.018223235,NA,NA,NA,NA,0.69,NA,NA,NA,439,338,9,21,2504504,21418.54,High School,0.779,0,2
14K071,Juan Morel Campos Secondary School,BROOKLYN ,6 to 12,40.703624,-73.953146,NA,NA,NA,NA,NA,NA,NA,NA,NA,NA,NA,NA,NA,NA,NA,NA,NA,NA,NA,NA,NA,100,11,0,0.020599251,3,0,2,1,0.99,1,0.83,0.92,534,465,12,52,5008010,33640.82,High School,0.882,0,1
14K449,"Brooklyn Latin School, The",BROOKLYN ,9 to 12,40.709941,-73.943641,53,87.9,0.078171091,158,83.6,0.233038348,158,81.2,0.233038348,79,88.8,0.116519174,NA,NA,NA,162,73.1,0.238938053,NA,NA,NA,200,14,0,0.020648968,NA,NA,NA,NA,0.87,0.92,0.83,0.92,678,418,4,40,3054021,18192.64,High School,0.633,0,0
14K454,"Williamsburg High School of Arts and Technology, The",BROOKLYN ,9 to 12,40.709941,-73.943641,150,60.9,0.557620818,NA,NA,NA,NA,NA,NA,119,59.5,0.442379182,56,57.7,0.208178439,NA,NA,NA,NA,NA,NA,200,7,0,0.026022305,4,0,2,2,0.58,NA,NA,NA,269,211,4,20,2146298,26427.39,High School,0.803,1,NA
14K474,PROGRESS High School for Professional Careers,BROOKLYN ,9 to 12,40.712184,-73.939722,356,61.3,NA,46,51.8,NA,2,NA,NA,290,64.9,NA,83,52.7,NA,14,54.1,NA,NA,NA,NA,200,12,0,0.015665796,1,1,1,0,0.84,1,1,1,NA,NA,NA,NA,NA,NA,High School,0.896,1,1
14K477,East Williamsburg Scholars Academy,BROOKLYN ,9 to 12,40.712184,-73.939722,135,56.2,0.402985075,19,57.4,0.056716418,22,47.3,0.065671642,142,54.4,0.423880597,46,49.2,0.137313433,NA,NA,NA,NA,NA,NA,200,8,0,0.023880597,1,1,1,0,0.75,1,1,1,335,310,1,26,1986292,26684.98,High School,0.943,1,0
14K478,"The High School for Enterprise, Business and Technology",BROOKLYN ,9 to 12,40.712184,-73.939722,263,56.8,0.301605505,34,63.4,0.038990826,266,55.7,0.305045872,267,64.7,0.306192661,119,58.2,0.13646789,81,56.6,0.092889908,6,49.3,0.006880734,200,17,0,0.019495413,1,1,1,0,0.68,0.82,0.91,0.91,872,700,8,46,5027130,21545.07,High School,0.811,4,1
14K488,Brooklyn Preparatory High School,BROOKLYN ,9 to 12,40.715073,-73.954754,192,61,0.375,NA,NA,NA,1,NA,0.001953125,119,75.1,0.232421875,10,51.9,0.01953125,NA,NA,NA,NA,NA,NA,100,8,0,0.015625,NA,NA,NA,NA,0.71,1,0.83,1,512,446,9,26,2650435,20610.8,High School,0.875,2,0
14K558,Williamsburg High School for Architecture and Design,BROOKLYN ,9 to 12,40.715073,-73.954754,165,71.6,0.291519435,182,63.9,0.32155477,19,56.3,0.033568905,158,73.6,0.279151943,187,70.7,0.330388693,3,NA,0.005300353,NA,NA,NA,100,9,0,0.01590106,NA,NA,NA,NA,NA,NA,NA,NA,566,475,4,31,2918952,21906.43,High School,0.845,1,0
14K561,Williamsburg Preparatory School,BROOKLYN ,9 to 12,40.715073,-73.954754,164,69.8,0.24260355,76,69.1,0.112426036,146,63.3,0.215976331,218,69.3,0.322485207,83,56.1,0.122781065,91,64.6,0.134615385,11,54.7,0.016272189,100,12,0,0.017751479,1,0,1,0,0.93,0.94,0.94,0.88,676,574,3,40,3915872,19970.65,High School,0.859,1,0
14K586,Lyons Community School,BROOKLYN ,6 to 12,40.709941,-73.943641,NA,NA,NA,NA,NA,NA,NA,NA,NA,NA,NA,NA,NA,NA,NA,NA,NA,NA,NA,NA,NA,200,16,0,0.032258065,NA,NA,NA,NA,1,1,1,1,496,443,8,34,3413234,24607.46,High School,0.919,0,0
14K610,Automotive High School,BROOKLYN ,9 to 12,40.721981,-73.953281,155,59.3,NA,13,61.2,NA,109,51.8,NA,151,65.8,NA,53,58.5,NA,9,60.4,NA,NA,NA,NA,50,8,0,0.020050125,4,0,0,4,0.85,1,1,1,NA,NA,NA,NA,NA,NA,High School,0.812,0,2
14K614,Young Women's Leadership School of Brooklyn (TYWLS),BROOKLYN ,6 to 12,40.705204,-73.939407,NA,NA,NA,NA,NA,NA,NA,NA,NA,NA,NA,NA,NA,NA,NA,NA,NA,NA,NA,NA,NA,100,9,0,0.022167488,1,1,1,0,0.83,0.91,0.73,0.82,406,313,5,23,2387361,21028.84,High School,0.8,3,0
14K685,El Puente Academy for Peace and Justice,BROOKLYN ,9 to 12,40.705898,-73.955611,NA,NA,NA,NA,NA,NA,NA,NA,NA,NA,NA,NA,NA,NA,NA,NA,NA,NA,NA,NA,NA,100,4,0,0.016949153,NA,NA,NA,NA,1,1,1,1,236,203,6,12,1283145,26312.23,High School,0.881,0,0
15K423,Brooklyn Frontiers High School,BROOKLYN ,9 to 12,40.690145,-73.989132,39,59.2,0.232142857,NA,NA,NA,5,NA,0.029761905,44,56.6,0.261904762,1,NA,0.005952381,NA,NA,NA,NA,NA,NA,100,7,0,0.041666667,NA,NA,NA,NA,1,1,1,1,168,153,9,15,1839577,31216.62,High School,0.923,0,0
15K429,Digital Arts and Cinema Technology High School,BROOKLYN ,9 to 12,40.685419,-73.993351,NA,NA,NA,NA,NA,NA,NA,NA,NA,NA,NA,NA,NA,NA,NA,NA,NA,NA,NA,NA,NA,100,4,0,0.019417476,NA,NA,NA,NA,1,NA,NA,NA,206,165,4,14,1796485,25997.41,High School,0.811,1,0
15K448,Brooklyn Secondary School for Collaborative Studies,BROOKLYN ,6 to 12,40.68007,-74.001377,NA,NA,NA,NA,NA,NA,NA,NA,NA,NA,NA,NA,NA,NA,NA,NA,NA,NA,NA,NA,NA,200,14,1,0.020558003,1,0,1,0,0.74,1,0.94,0.94,NA,NA,NA,NA,NA,NA,High School,0.698,0,0
15K462,John Jay School for Law,BROOKLYN ,9 to 12,40.669629,-73.979287,202,59.1,0.460136674,53,54.3,0.120728929,134,55.4,0.30523918,161,62.7,0.366742597,92,60.6,0.209567198,32,49.9,0.072892938,NA,NA,NA,40,9,0,0.020501139,1,0,0,1,0.94,0.89,0.78,1,439,349,16.5,13,2356665,20003.04,High School,0.811,2,NA
15K463,Secondary School for Journalism,BROOKLYN ,9 to 12,40.669629,-73.979287,123,59.4,NA,5,NA,NA,26,63.2,NA,89,58,NA,NA,NA,NA,8,56.5,NA,NA,NA,NA,40,4,0,0.018604651,2,2,2,0,0.88,0.83,0.83,0.83,NA,NA,NA,NA,NA,NA,High School,0.865,1,0
15K464,Park Slope Collegiate,BROOKLYN ,6 to 12,40.669629,-73.979287,NA,NA,NA,NA,NA,NA,NA,NA,NA,NA,NA,NA,NA,NA,NA,NA,NA,NA,NA,NA,NA,40,12,0,0.018348624,NA,NA,NA,NA,0.65,1,1,1,654,437,15,37,4257143,21219.79,High School,0.673,0,0
15K497,The Boerum Hill School for International Studies,BROOKLYN ,6 to 12,40.685419,-73.993351,NA,NA,NA,NA,NA,NA,NA,NA,NA,NA,NA,NA,NA,NA,NA,NA,NA,NA,NA,NA,NA,100,12,0,0.018987342,NA,NA,NA,NA,0.92,1,0.93,1,632,358,25,22,3994753,20076.8,High School,0.581,0,2
15K519,Cobble Hill School of American Studies,BROOKLYN ,9 to 12,40.684524,-73.990993,238,59.4,0.407534247,72,49.5,0.123287671,115,51.5,0.196917808,203,58.7,0.34760274,96,60.9,0.164383562,51,54.9,0.087328767,6,60.2,0.010273973,100,10,0,0.017123288,NA,NA,NA,NA,0.85,1,0.85,0.92,584,523,16,21,3410736,23745.47,High School,0.909,0,0
15K592,Khalil Gibran International Academy,BROOKLYN ,9 to 12,40.686499,-73.979649,114,57,0.422222222,31,61.3,0.114814815,63,52.8,0.233333333,92,57.8,0.340740741,38,53.4,0.140740741,27,58,0.1,10,47.3,0.037037037,100,5,0,0.018518519,NA,NA,NA,NA,0.86,1,0.86,1,270,234,11,15,1865304,23706.79,High School,0.893,0,0
15K656,Brooklyn High School of the Arts,BROOKLYN ,9 to 12,40.683559,-73.98027,268,63.8,0.30911188,172,57.3,0.198385236,231,56.7,0.266435986,235,66.6,0.271049596,189,67,0.21799308,126,53.8,0.14532872,NA,NA,NA,100,15,0,0.017301038,1,0,1,0,0.88,1,1,1,867,598,15,45,5208774,21526.06,High School,0.708,1,0
15K667,Sunset Park High School,BROOKLYN ,9 to 12,40.65571,-74.005197,405,61.9,0.329268293,201,62.5,0.163414634,296,56.7,0.240650407,405,62.6,0.329268293,305,68.1,0.24796748,1,NA,0.000813008,NA,NA,NA,50,25,0,0.020325203,4,1,3,1,0.85,0.81,0.66,0.78,1230,1040,42,70,8356950,21937.23,High School,0.854,2,2
15K684,Millennium Brooklyn High School,BROOKLYN ,9 to 12,40.669629,-73.979287,92,80.3,0.136904762,135,78.2,0.200892857,188,77.2,0.279761905,81,85.9,0.120535714,87,81.1,0.129464286,118,72.3,0.175595238,89,70.4,0.132440476,40,15,0,0.022321429,2,1,2,0,0.98,0.91,0.95,1,672,265,11,51,4750440,24433.47,High School,0.4,2,1
16K455,Boys and Girls High School,BROOKLYN ,9 to 12,40.67944,-73.932407,181,56.8,0.422897196,34,51,0.079439252,59,49.5,0.137850467,187,57.1,0.436915888,28,45.7,0.065420561,26,52.4,0.060747664,NA,NA,NA,100,6,0,0.014018692,1,1,1,0,0.85,1,1,1,428,341,11,21,3236966,32186.07,High School,0.815,1,0
16K498,Brooklyn High School for Law and Technology,BROOKLYN ,9 to 12,40.688831,-73.920906,174,60.3,0.292929293,28,68.9,0.047138047,109,52.8,0.183501684,181,64,0.304713805,55,64.9,0.092592593,59,59.2,0.099326599,3,NA,0.005050505,40,9,0,0.015151515,NA,NA,NA,NA,0.4,0.83,0.83,0.83,594,507,15.7,21,3055262,21086.38,High School,0.867,0,NA
16K594,Gotham Professional Arts Academy,BROOKLYN ,9 to 12,40.680239,-73.921099,NA,NA,NA,NA,NA,NA,NA,NA,NA,NA,NA,NA,NA,NA,NA,NA,NA,NA,NA,NA,NA,50,4,0,0.023809524,NA,NA,NA,NA,0.94,0.86,0.86,0.86,NA,NA,NA,NA,NA,NA,High School,NA,0,0
16K688,"Brooklyn Academy of Global Finance, The",BROOKLYN ,9 to 12,40.691274,-73.933697,79,54.3,0.585185185,2,NA,0.014814815,48,42.1,0.355555556,70,46.9,0.518518519,7,32.7,0.051851852,10,35.5,0.074074074,NA,NA,NA,100,4,0,0.02962963,4,1,2,2,1,1,0.6,0.8,135,132,5,9,933286,30758.34,High School,0.95,1,0
16K765,Nelson Mandela High School,BROOKLYN ,9 to 12,40.67944,-73.932407,69,62.4,0.252747253,NA,NA,NA,2,NA,0.007326007,104,57.1,0.380952381,NA,NA,NA,11,64,0.04029304,NA,NA,NA,100,5,0,0.018315018,1,1,1,0,1,0.86,1,1,273,212,5.5,16,1451572,23141.85,High School,0.795,1,NA
17K122,Pathways in Technology Early College High School (P-TECH),BROOKLYN ,9 to 14,40.675612,-73.938843,156,66.5,NA,1,NA,NA,17,53,NA,107,61.9,NA,NA,NA,NA,NA,NA,NA,6,50,NA,100,11,0,0.018581081,NA,NA,NA,NA,1,0.91,0.82,0.82,NA,NA,NA,NA,NA,NA,High School,0.74,0,NA
17K382,Academy for College Preparation and Career Exploration: A College Board School,BROOKLYN ,6 to 12,40.649787,-73.95855,NA,NA,NA,NA,NA,NA,NA,NA,NA,NA,NA,NA,NA,NA,NA,NA,NA,NA,NA,NA,NA,30,6,1,0.014218009,NA,NA,NA,NA,0.87,0.8,0.8,0.8,422,327,3,19,1974051,21215.24,High School,0.796,1,1
17K408,Academy of Hospitality and Tourism,BROOKLYN ,9 to 12,40.649787,-73.95855,79,60.6,0.379807692,5,NA,0.024038462,27,53.3,0.129807692,74,59.5,0.355769231,66,51.7,0.317307692,13,54.2,0.0625,NA,NA,NA,30,4,1,0.019230769,1,0,0,1,1,1,1,1,208,178,5,10,1436354,25446.5,High School,0.88,0,0
17K489,W.E.B. DuBois Academic High School,BROOKLYN ,"School is structured on credit needs, not grade level",40.669561,-73.955188,16,60.6,NA,NA,NA,NA,NA,NA,NA,16,73.4,NA,6,54.5,NA,NA,NA,NA,NA,NA,NA,100,3,0,0.022727273,NA,NA,NA,NA,0.88,NA,NA,NA,NA,NA,NA,NA,NA,NA,High School,NA,0,0
17K524,International High School at Prospect Heights,BROOKLYN ,9 to 12,40.670349,-73.961695,210,58.5,0.503597122,NA,NA,NA,NA,NA,NA,NA,NA,NA,NA,NA,NA,NA,NA,NA,NA,NA,NA,100,9,0,0.021582734,2,0,1,1,0.89,1,1,1,417,313,7,23,2431574,22329.5,High School,0.827,0,NA
17K528,The High School for Global Citizenship,BROOKLYN ,9 to 12,40.670349,-73.961695,91,67.8,0.461928934,NA,NA,NA,7,65.6,0.035532995,70,60.8,0.355329949,63,48.8,0.319796954,NA,NA,NA,NA,NA,NA,100,5,0,0.025380711,1,1,1,0,1,1,0.8,0.8,197,180,6,8,1248978,25821.71,High School,0.939,1,0
17K531,The School for Human Rights,BROOKLYN ,8 to 12,40.658893,-73.942458,NA,NA,NA,NA,NA,NA,NA,NA,NA,NA,NA,NA,NA,NA,NA,NA,NA,NA,NA,NA,NA,100,8,0,0.01814059,3,1,2,1,1,1,1,0.88,441,369,0,29,2754403,28056.05,High School,0.857,0,0
17K537,High School for Youth and Community Development at Erasmus,BROOKLYN ,9 to 12,40.649787,-73.95855,183,58.1,0.38125,5,NA,0.010416667,70,58.2,0.145833333,199,59.4,0.414583333,39,53.5,0.08125,2,NA,0.004166667,NA,NA,NA,30,5,1,0.010416667,NA,NA,NA,NA,1,1,1,1,480,400,5,17,1916801,22826.47,High School,0.842,1,1
17K539,High School for Service & Learning at Erasmus,BROOKLYN ,9 to 12,40.649787,-73.95855,92,61.4,0.259887006,13,58.1,0.036723164,38,63.1,0.107344633,108,59.8,0.305084746,98,55.7,0.276836158,11,59.1,0.031073446,2,NA,0.005649718,30,6,1,0.016949153,NA,NA,NA,NA,0.92,NA,NA,NA,354,293,8,15,1672011,22923.69,High School,0.845,0,0
17K543,"Science, Technology and Research Early College High School at Erasmus (STAR)",BROOKLYN ,6 to 12,40.649787,-73.95855,NA,NA,NA,NA,NA,NA,NA,NA,NA,NA,NA,NA,NA,NA,NA,NA,NA,NA,NA,NA,NA,30,10,1,0.018484288,NA,NA,NA,NA,0.85,1,1,1,541,410,5.2,27,2958771,19751.51,High School,0.787,2,0
17K546,High School for Public Service: Heroes of Tomorrow,BROOKLYN ,9 to 12,40.658893,-73.942458,116,63.7,0.255506608,60,60.1,0.13215859,89,64,0.196035242,84,70.8,0.185022026,85,74.1,0.18722467,51,65.7,0.112334802,13,72.6,0.028634361,100,8,0,0.017621145,NA,NA,NA,NA,0.77,1,1,1,454,362,4,25,2965489,21967.68,High School,0.804,0,0
17K547,Brooklyn Academy of Science and the Environment (BASE),BROOKLYN ,9 to 12,40.670349,-73.961695,173,60,0.463806971,25,62,0.067024129,90,53.2,0.241286863,111,65.1,0.297587131,57,70.9,0.152815013,NA,NA,NA,NA,NA,NA,100,7,0,0.018766756,1,1,1,0,0.85,0.83,0.83,1,373,302,1,23,2134896,22042.14,High School,0.834,3,1
17K548,Brooklyn School for Music & Theatre,BROOKLYN ,9 to 12,40.670349,-73.961695,166,57.5,0.560810811,3,NA,0.010135135,68,47.3,0.22972973,138,59.6,0.466216216,63,54.3,0.212837838,NA,NA,NA,NA,NA,NA,100,5,0,0.016891892,NA,NA,NA,NA,0.9,1,1,1,296,246,3,16,1691400,23088.96,High School,0.845,0,0
17K590,Medgar Evers College Preparatory School,BROOKLYN ,6 to 12,40.667195,-73.951167,NA,NA,NA,NA,NA,NA,NA,NA,NA,NA,NA,NA,NA,NA,NA,NA,NA,NA,NA,NA,NA,20,21,0,0.016706444,2,2,2,0,0.23,1,1,1,1257,844,11.6,49,6003098,16726.21,High School,0.713,8,1
17K600,Clara Barton High School,BROOKLYN ,9 to 12,40.669567,-73.961962,409,64.5,0.334971335,67,54.1,0.054873055,120,53.6,0.098280098,292,67.6,0.239148239,108,77.9,0.088452088,43,65.2,0.035217035,20,58.1,0.016380016,100,16,1,0.013104013,2,1,2,0,0.78,0.85,0.83,0.85,1221,946,11.2,65,7453898,23976.6,High School,0.794,1,1
17K745,Brooklyn Institute for Liberal Arts (BILA),BROOKLYN ,9 to 12,40.658893,-73.942458,147,69.2,0.385826772,13,56.7,0.034120735,NA,NA,NA,119,68.2,0.312335958,NA,NA,NA,8,58.9,0.020997375,NA,NA,NA,100,7,0,0.018372703,3,0,0,3,1,1,1,1,381,344,15,12,1995069,19865.06,High School,0.906,0,0
17K751,Academy for Health Careers,BROOKLYN ,9 to 12,40.675612,-73.938843,100,65.5,0.278551532,2,NA,0.005571031,36,46.8,0.100278552,83,68.6,0.231197772,2,NA,0.005571031,16,58,0.044568245,NA,NA,NA,100,8,0,0.022284123,NA,NA,NA,NA,1,0.88,0.75,1,359,301,5,23,2352337,23656.53,High School,0.844,0,NA
18K563,It Takes a Village Academy,BROOKLYN ,9 to 12,40.648657,-73.922171,274,65.9,0.375342466,82,61.6,0.112328767,205,66.5,0.280821918,187,62.6,0.256164384,129,68.2,0.176712329,27,59.1,0.036986301,22,61.5,0.030136986,40,18,0,0.024657534,4,2,4,0,0.96,0.84,0.84,0.84,730,530,18.3,40,4150405,21326.45,High School,0.744,0,2
18K566,Brooklyn Generation School,BROOKLYN ,9 to 12,40.633285,-73.916735,98,58.6,NA,NA,NA,NA,17,65.1,NA,88,63.5,NA,10,66.6,NA,10,56,NA,NA,NA,NA,50,7,0,0.035897436,NA,NA,NA,NA,0.91,0.86,0.71,0.71,NA,NA,NA,NA,NA,NA,High School,0.821,0,NA
18K567,Brooklyn Theatre Arts High School,BROOKLYN ,9 to 12,40.633285,-73.916735,206,57.7,0.569060773,35,49.8,0.096685083,29,49.1,0.080110497,143,61.8,0.395027624,NA,NA,NA,1,NA,0.002762431,NA,NA,NA,50,5,0,0.013812155,NA,NA,NA,NA,0.9,1,1,0.83,362,293,5,16,1563210,20372.63,High School,0.823,0,0
18K569,Kurt Hahn Expeditionary Learning School,BROOKLYN ,9 to 12,40.648657,-73.922171,1,NA,0.002832861,1,NA,0.002832861,1,NA,0.002832861,NA,NA,NA,NA,NA,NA,1,NA,0.002832861,NA,NA,NA,40,7,0,0.019830028,1,0,0,1,0.68,NA,NA,NA,353,292,8,22,2291575,23024.95,High School,0.836,0,NA
18K576,Victory Collegiate High School,BROOKLYN ,9 to 12,40.633285,-73.916735,114,55,0.284289277,NA,NA,NA,50,50.4,0.124688279,117,58.5,0.291770574,1,NA,0.002493766,5,NA,0.012468828,NA,NA,NA,50,9,0,0.02244389,NA,NA,NA,NA,0.85,1,0.83,0.83,401,318,9,25,2441752,24228.73,High School,0.803,2,0
18K617,High School for Innovation in Advertising and Media,BROOKLYN ,9 to 12,40.641474,-73.898254,129,59.4,0.505882353,9,43.4,0.035294118,46,49.3,0.180392157,90,56.9,0.352941176,50,72.8,0.196078431,NA,NA,NA,NA,NA,NA,50,6,0,0.023529412,3,0,2,1,0.76,0.8,0.8,1,255,178,7,13,1836696,26338.12,High School,0.725,0,0
18K629,Cultural Academy for the Arts and Sciences,BROOKLYN ,9 to 12,40.648657,-73.922171,161,59.9,0.504702194,25,55.4,0.078369906,58,54.7,0.181818182,110,64.5,0.344827586,11,59.4,0.034482759,24,54.5,0.07523511,NA,NA,NA,40,7,0,0.021943574,NA,NA,NA,NA,0.85,0.86,0.86,0.83,319,239,4,21,1993651,23360.74,High School,0.759,0,NA
18K633,High School for Medical Professions,BROOKLYN ,9 to 12,40.641474,-73.898254,174,63.4,0.410377358,15,66.1,0.035377358,31,60.2,0.073113208,115,64.2,0.271226415,81,63.8,0.191037736,25,63.3,0.058962264,NA,NA,NA,50,7,0,0.016509434,NA,NA,NA,NA,0.89,1,1,1,424,403,7,20,2279986,21504.12,High School,0.95,2,1
18K637,Academy for Conservation and the Environment,BROOKLYN ,9 to 12,40.633285,-73.916735,171,62.2,0.6,52,52,0.18245614,6,48.5,0.021052632,118,63,0.414035088,37,60,0.129824561,NA,NA,NA,NA,NA,NA,50,5,0,0.01754386,3,0,2,1,0.96,1,1,1,285,235,13,10,1610333,22836.02,High School,0.853,1,0
18K642,Urban Action Academy,BROOKLYN ,9 to 12,40.641474,-73.898254,160,58.8,0.575539568,11,50,0.039568345,24,51.2,0.086330935,132,56.5,0.474820144,3,NA,0.010791367,9,62.2,0.032374101,NA,NA,NA,50,6,0,0.021582734,1,1,1,0,1,1,0.8,0.8,278,210,5,16,1561039,25058.92,High School,0.784,0,0
19K404,Academy for Young Writers,BROOKLYN ,6 to 12,40.657459,-73.874756,NA,NA,NA,NA,NA,NA,NA,NA,NA,NA,NA,NA,NA,NA,NA,NA,NA,NA,NA,NA,NA,30,15,1,0.027472527,4,0,1,3,0.7,0.93,0.8,0.87,546,459,17,29.7,3628321,23774.07,High School,0.842,2,0
19K409,East New York Family Academy,BROOKLYN ,6 to 12,40.661072,-73.886942,NA,NA,NA,NA,NA,NA,NA,NA,NA,NA,NA,NA,NA,NA,NA,NA,NA,NA,NA,NA,NA,50,11,0,0.022177419,1,1,1,0,0.58,1,1,1,496,432,8,32,3273737,22841.66,High School,0.873,3,1
19K422,Spring Creek Community School,BROOKLYN ,6 to 12,40.657459,-73.874756,NA,NA,NA,NA,NA,NA,NA,NA,NA,NA,NA,NA,NA,NA,NA,NA,NA,NA,NA,NA,NA,30,8,0,0.016736402,NA,NA,NA,NA,0.78,0.84,0.84,0.84,478,393,20,22,3567050,21996.39,High School,0.839,0,0
19K502,FDNY - Captain Vernon A. Richards High School for Fire and Life Safety,BROOKLYN ,9 to 12,40.667456,-73.894747,158,58.4,0.474474474,12,61.8,0.036036036,29,45.7,0.087087087,91,60.3,0.273273273,76,53.8,0.228228228,NA,NA,NA,NA,NA,NA,40,6,0,0.018018018,NA,NA,NA,NA,NA,NA,NA,NA,333,278,7,15,1751340,24006.37,High School,0.85,0,0
19K504,High School for Civil Rights,BROOKLYN ,9 to 12,40.667456,-73.894747,128,55.1,0.484848485,8,57.1,0.03030303,12,56.3,0.045454545,110,56.9,0.416666667,NA,NA,NA,10,46.2,0.037878788,3,NA,0.011363636,40,5,0,0.018939394,NA,NA,NA,NA,0.95,1,1,0.83,264,218,6,13,1272653,27241.69,High School,0.848,2,NA
19K507,Performing Arts and Technology High School,BROOKLYN ,9 to 12,40.667456,-73.894747,175,60.8,0.388888889,33,45.8,0.073333333,73,42.6,0.162222222,230,63.9,0.511111111,22,48.7,0.048888889,29,50,0.064444444,NA,NA,NA,40,8,0,0.017777778,NA,NA,NA,NA,0.75,1,0.6,1,450,408,8,22,2704236,22038.46,High School,0.916,1,0
19K510,World Academy for Total Community Health High School (WATCH),BROOKLYN ,9 to 12,40.667456,-73.894747,56,58.6,0.213740458,9,66.4,0.034351145,17,62.4,0.064885496,67,63.3,0.255725191,28,66.5,0.106870229,2,NA,0.007633588,NA,NA,NA,40,5,0,0.019083969,NA,NA,NA,NA,1,0.83,0.83,0.83,262,241,5,13,1654162,23879.84,High School,0.927,1,0
19K583,Multicultural High School,BROOKLYN ,9 to 12,40.691146,-73.868328,171,56.6,0.703703704,NA,NA,NA,56,36.9,0.230452675,51,55.3,0.209876543,24,46,0.098765432,41,39.1,0.16872428,NA,NA,NA,100,5,0,0.020576132,2,1,2,0,0.96,0.83,0.67,0.83,243,206,8,12,1717464,25054.73,High School,0.922,1,1
19K615,Transit Tech Career and Technical Education High School,BROOKLYN ,9 to 12,40.678276,-73.87596,340,57.7,0.476858345,12,65.9,0.016830295,78,45.9,0.109396914,279,60.8,0.391304348,3,NA,0.004207574,37,49.5,0.051893408,7,53.4,0.009817672,40,12,0,0.016830295,2,0,2,0,0.82,0.73,0.82,0.82,713,540,7,52,4610655,26683.12,High School,0.776,2,1
19K618,Academy of Innovative Technology,BROOKLYN ,9 to 12,40.691146,-73.868328,148,65.8,0.367245658,28,61.1,0.069478908,132,59.7,0.327543424,137,65.8,0.339950372,72,72.8,0.17866005,21,59.8,0.052109181,NA,NA,NA,100,8,0,0.019851117,1,1,1,0,0.86,1,1,1,403,345,10,26,2766514,23406.39,High School,0.866,2,2
19K639,Brooklyn Lab School,BROOKLYN ,9 to 12,40.691146,-73.868328,243,57.2,0.6328125,9,58.2,0.0234375,57,54.9,0.1484375,160,56.4,0.416666667,68,46.5,0.177083333,5,NA,0.013020833,NA,NA,NA,100,6,0,0.015625,NA,NA,NA,NA,0.85,0.8,1,1,384,330,8,19,2436920,24457.55,High School,0.893,0,0
19K659,Cypress Hills Collegiate Preparatory School,BROOKLYN ,9 to 12,40.691146,-73.868328,162,62.9,0.645418327,41,53,0.163346614,84,51.3,0.334661355,139,62.2,0.553784861,70,60.8,0.278884462,1,NA,0.003984064,NA,NA,NA,100,4,0,0.015936255,1,0,1,0,1,NA,NA,NA,251,206,3,13,1970516,26599.79,High School,0.873,0,0
19K660,W. H. Maxwell Career and Technical Education High School,BROOKLYN ,9 to 12,40.674135,-73.89643,119,64,0.292383292,7,54.3,0.017199017,45,57.3,0.110565111,166,58.7,0.407862408,85,49.6,0.208845209,31,44.4,0.076167076,NA,NA,NA,100,8,0,0.01965602,NA,NA,NA,NA,0.81,1,1,1,407,360,2,39,3271928,32932.52,High School,0.894,0,0
19K683,"The School for Classics: An Academy of Thinkers, Writers and Performers",BROOKLYN ,9 to 12,40.670724,-73.874208,130,61.6,NA,8,54.6,NA,108,53.1,NA,111,59.8,NA,106,57.4,NA,10,47.9,NA,NA,NA,NA,50,6,0,0.020905923,NA,NA,NA,NA,0.79,0.83,0.83,0.67,NA,NA,NA,NA,NA,NA,High School,0.892,1,1
19K764,The Urban Assembly School for Collaborative Healthcare,BROOKLYN ,9 to 12,40.691146,-73.868328,159,61.8,0.50798722,82,61.8,0.261980831,1,NA,0.003194888,113,65.8,0.361022364,62,70.7,0.198083067,21,58.1,0.067092652,NA,NA,NA,100,7,0,0.022364217,NA,NA,NA,NA,0.92,0.71,0.86,1,313,249,10.3,15,1878410,23138.31,High School,0.812,0,0
20K445,New Utrecht High School,BROOKLYN ,9 to 12,40.613262,-74.003404,838,71.1,0.23519506,391,73,0.109738984,561,72.4,0.157451586,856,72.5,0.240246983,463,73.1,0.129946674,364,69.7,0.1021611,70,72.3,0.019646365,50,52,0,0.014594443,5,1,2,3,0.74,0.91,0.93,0.89,3563,2811,37.2,168,18853059,19547.39,High School,0.807,5,1
20K485,High School of Telecommunication Arts and Technology,BROOKLYN ,9 to 12,40.637282,-74.023849,321,66.5,0.251173709,242,70.7,0.189358372,360,59.9,0.281690141,324,67.9,0.253521127,106,69.7,0.082942097,223,60.4,0.174491393,223,60.6,0.174491393,40,21,0,0.016431925,5,1,5,0,0.94,0.93,0.89,0.93,1278,959,24.7,62,7289278,22404.22,High School,0.772,6,NA
20K490,Fort Hamilton High School,BROOKLYN ,9 to 12,40.627835,-74.040046,1239,69.6,0.270405936,536,75.3,0.116979485,1062,66.8,0.231776517,1262,70,0.275425578,727,67.2,0.158664339,444,74.5,0.096900917,261,79.2,0.056962025,50,60,1,0.013094718,1,0,0,1,0.79,0.93,0.86,0.96,4582,3264,43.5,192.6,22130154,18698.83,High School,0.731,4,NA
20K505,Franklin Delano Roosevelt High School,BROOKLYN ,9 to 12,40.620446,-73.981795,1123,70.3,0.366873571,262,75.8,0.085592943,504,73.8,0.164652074,952,70.3,0.311009474,76,67.8,0.024828487,404,64.9,0.131983012,75,66.4,0.024501797,50,47,0,0.015354459,6,0,2,4,0.73,0.83,0.78,0.81,3061,2476,32.9,157,17594620,21366.27,High School,0.832,4,1
20K609,Urban Assembly School for Criminal Justice,BROOKLYN ,6 to 12,40.634875,-73.981528,NA,NA,NA,NA,NA,NA,NA,NA,NA,NA,NA,NA,NA,NA,NA,NA,NA,NA,NA,NA,NA,40,12,0,0.021582734,NA,NA,NA,NA,0.98,0.93,0.73,0.87,NA,NA,NA,NA,NA,NA,High School,0.946,2,0
21K337,International High School at Lafayette,BROOKLYN ,9 to 12,40.594291,-73.98577,170,64.2,0.504451039,NA,NA,NA,NA,NA,NA,NA,NA,NA,NA,NA,NA,NA,NA,NA,NA,NA,NA,50,8,0,0.023738872,1,0,0,1,0.93,1,1,1,337,310,4,22,2160629,24011.38,High School,0.947,0,NA
21K344,Rachel Carson High School for Coastal Studies,BROOKLYN ,9 to 12,40.582533,-73.973132,170,65.1,0.266040689,201,59.9,0.314553991,22,51.1,0.034428795,144,69.2,0.225352113,127,67.6,0.198748044,35,62.9,0.054773083,NA,NA,NA,20,11,0,0.017214397,1,1,1,0,0.58,1,0.8,1,639,421,5.5,31,3556771,21397.83,High School,0.687,2,2
21K348,High School of Sports Management,BROOKLYN ,9 to 12,40.594291,-73.98577,110,63.6,0.454545455,39,57.4,0.161157025,60,52.3,0.247933884,94,62.5,0.388429752,76,56.9,0.314049587,1,NA,0.004132231,NA,NA,NA,50,5,0,0.020661157,NA,NA,NA,NA,1,1,1,1,242,192,1,15,1337517,25082.52,High School,0.806,1,0
21K410,Abraham Lincoln High School,BROOKLYN ,9 to 12,40.581681,-73.967308,698,62.3,0.349349349,87,74.3,0.043543544,319,54.4,0.15965966,647,65,0.323823824,185,60.7,0.092592593,103,61.2,0.051551552,58,67.8,0.029029029,40,34,0,0.017017017,7,1,5,2,0.9,0.88,0.88,0.88,1998,1545,23,104,10998521,20884.46,High School,0.795,2,1
21K468,Kingsborough Early College School,BROOKLYN ,6 to 12,40.594291,-73.98577,NA,NA,NA,NA,NA,NA,NA,NA,NA,NA,NA,NA,NA,NA,NA,NA,NA,NA,NA,NA,NA,50,10,0,0.0152207,1,1,1,0,0.95,1,1,1,657,465,5.5,32,3546924,19739.52,High School,0.723,2,NA
21K525,Edward R. Murrow High School,BROOKLYN ,9 to 12,40.620525,-73.959285,794,71.5,0.209553972,432,70.9,0.114014252,680,68.6,0.179466878,781,69.2,0.206122988,570,63.2,0.150435471,514,65.5,0.135655846,115,68.6,0.030351016,100,50,0,0.013196094,3,2,2,1,0.87,0.95,0.96,0.96,3789,2657,23.5,185,19578381,19889.68,High School,0.71,6,1
21K540,John Dewey High School,BROOKLYN ,9 to 12,40.589268,-73.981738,782,66.3,0.338674751,258,71.6,0.111736683,554,61.1,0.239930706,667,67.7,0.288869641,24,48.8,0.01039411,213,67,0.092247726,42,59.2,0.018189693,50,40,0,0.017323517,6,2,3,3,0.81,0.94,0.74,0.87,2309,1914,49,92,12094046,20804.32,High School,0.842,8,3
21K559,Life Academy High School for Film and Music,BROOKLYN ,9 to 12,40.594291,-73.98577,138,66.3,0.455445545,10,77.6,0.0330033,109,60.7,0.359735974,107,63.7,0.353135314,80,64.8,0.264026403,25,65.6,0.082508251,NA,NA,NA,50,4,0,0.01320132,NA,NA,NA,NA,0.59,NA,NA,NA,303,233,5,15,1801901,21578.61,High School,0.776,1,0
21K572,Expeditionary Learning School for Community Leaders,BROOKLYN ,9 to 12,40.594291,-73.98577,NA,NA,NA,NA,NA,NA,NA,NA,NA,NA,NA,NA,NA,NA,NA,NA,NA,NA,NA,NA,NA,50,9,0,0.025936599,2,0,1,1,0.96,1,1,1,NA,NA,NA,NA,NA,NA,High School,0.83,0,1
21K620,William E. Grady Career and Technical Education High School,BROOKLYN ,9 to 12,40.582585,-73.963477,188,63.4,0.410480349,12,58.6,0.026200873,47,54.4,0.102620087,187,64.2,0.408296943,39,59.5,0.085152838,2,NA,0.004366812,NA,NA,NA,40,8,2,0.017467249,1,1,1,0,0.93,0.8,0.8,0.8,458,407,10.6,28,3310885,33557.28,High School,0.9,1,2
21K690,Brooklyn Studio Secondary School,BROOKLYN ,6 to 12,40.604879,-73.994404,NA,NA,NA,NA,NA,NA,NA,NA,NA,NA,NA,NA,NA,NA,NA,NA,NA,NA,NA,NA,NA,NA,10,1,0.010615711,1,1,1,0,0.46,1,1,1,942,715,11,46.7,5238516,20835.51,High School,0.775,1,1
21K728,Liberation Diploma Plus High School,BROOKLYN ,"School is structured on credit needs, not grade level",40.577208,-73.985953,36,53.7,0.16,NA,NA,NA,NA,NA,NA,44,57.7,0.195555556,NA,NA,NA,NA,NA,NA,NA,NA,NA,20,4,0,0.017777778,NA,NA,NA,NA,0.43,NA,NA,NA,225,198,0.2,12,999636,24290.42,High School,0.889,0,0
22K405,Midwood High School,BROOKLYN ,9 to 12,40.633237,-73.952929,806,70.3,0.19862001,754,78.6,0.185805816,893,74,0.220059142,678,76.3,0.167077378,499,71,0.122966979,715,76.8,0.17619517,473,74.1,0.116559882,30,61,0,0.015032035,6,1,2,4,0.86,0.88,0.86,0.93,4058,3033,39,153,18463713,17602.17,High School,0.753,8,0
22K425,James Madison High School,BROOKLYN ,9 to 12,40.609912,-73.948512,1229,67.8,0.336067815,435,71.8,0.118949959,870,65.7,0.237899918,1077,69.3,0.294503692,231,73.8,0.06316653,440,69.5,0.1203172,147,71.7,0.040196883,50,54,0,0.014766202,3,1,2,1,0.97,0.95,0.86,0.91,3657,2794,36,163.2,19541063,18613.03,High School,0.774,6,1
22K535,Leon M. Goldstein High School for the Sciences,BROOKLYN ,9 to 12,40.580894,-73.935952,90,77,0.089020772,227,80.4,0.224530168,230,79.8,0.227497527,149,81.1,0.147378833,59,69.6,0.058358061,211,81.6,0.208704253,213,82.5,0.210682493,20,21,0,0.020771513,5,1,1,4,0.62,0.75,0.75,0.92,1011,508,6.7,49,5294688,19330.98,High School,0.512,6,1
22K555,Brooklyn College Academy,BROOKLYN ,9 to 12,40.649404,-73.971736,111,70.5,0.178456592,101,75.9,0.162379421,198,71.1,0.318327974,NA,NA,NA,164,78.6,0.263665595,187,69.6,0.300643087,NA,NA,NA,20,10,0,0.01607717,NA,NA,NA,NA,1,1,1,1,622,438,12.5,20,2685153,17509.7,High School,0.706,0,NA
22K611,Origins High School,BROOKLYN ,9 to 12,40.594124,-73.937696,131,65.5,0.306791569,8,55.3,0.018735363,96,60.1,0.224824356,91,64.1,0.213114754,98,60.6,0.229508197,10,52.7,0.023419204,NA,NA,NA,40,8,0,0.018735363,NA,NA,NA,NA,0.79,1,0.88,0.88,427,323,20,14,2519685,23926.62,High School,0.775,0,1
22K630,Professional Pathways High School,BROOKLYN ,"School is structured on credit needs, not grade level",40.594124,-73.937696,66,63,0.32195122,NA,NA,NA,15,47.9,0.073170732,53,61.4,0.258536585,27,64.9,0.131707317,NA,NA,NA,NA,NA,NA,40,6,0,0.029268293,NA,NA,NA,NA,1,1,1,1,205,165,3,15,1449792,24345.72,High School,0.81,0,0
23K493,Brooklyn Collegiate: A College Board School,BROOKLYN ,9 to 12,40.674103,-73.913273,142,60.8,0.52398524,37,58.2,0.136531365,23,47.9,0.084870849,124,58.4,0.457564576,33,57.1,0.121771218,31,53.5,0.114391144,5,NA,0.018450185,50,6,0,0.022140221,NA,NA,NA,NA,1,1,1,1,271,255,9.2,13,1791929,29374.44,High School,0.948,1,0
23K514,Frederick Douglass Academy VII High School,BROOKLYN ,9 to 12,40.665878,-73.911705,49,61.1,0.312101911,5,NA,0.031847134,11,53.8,0.070063694,37,63.5,0.23566879,27,58.5,0.171974522,15,67.7,0.095541401,NA,NA,NA,40,5,0,0.031847134,NA,NA,NA,NA,1,1,1,1,157,145,5,10,1002043,30861.24,High School,0.93,0,NA
23K644,Eagle Academy for Young Men II,BROOKLYN ,6 to 12,40.677805,-73.915843,NA,NA,NA,NA,NA,NA,NA,NA,NA,NA,NA,NA,NA,NA,NA,NA,NA,NA,NA,NA,NA,100,13,0,0.020092736,NA,NA,NA,NA,0.8,1,1,1,647,518,14,27,3099392,20929.12,High School,0.822,0,NA
23K647,Metropolitan Diploma Plus High School,BROOKLYN ,"School is structured on credit needs, not grade level",40.656068,-73.907245,32,69,0.147465438,NA,NA,NA,1,NA,0.004608295,33,70.1,0.152073733,NA,NA,NA,NA,NA,NA,NA,NA,NA,20,4,0,0.01843318,NA,NA,NA,NA,1,1,1,1,217,202,9,10,1646158,27071,High School,0.931,0,NA
23K697,Teachers Preparatory High School,BROOKLYN ,8 to 12,40.665878,-73.911705,NA,NA,NA,NA,NA,NA,NA,NA,NA,NA,NA,NA,NA,NA,NA,NA,NA,NA,NA,NA,NA,40,6,0,0.024,1,1,1,0,0.88,0.89,0.89,0.89,250,220,6,19,1584988,35034.85,High School,0.896,0,0
24Q236,International High School for Health Sciences,QUEENS   ,9 to 12,40.741122,-73.874721,124,57,0.403908795,1,NA,0.003257329,13,64.1,0.042345277,NA,NA,NA,1,NA,0.003257329,NA,NA,NA,NA,NA,NA,50,11,0,0.035830619,NA,NA,NA,NA,1,0.89,0.89,0.89,307,286,7,15,1875263,22527.77,High School,0.948,0,2
24Q264,Academy of Finance and Enterprise,QUEENS   ,9 to 12,40.745095,-73.936635,153,74.4,0.255852843,149,72.5,0.24916388,184,70.1,0.307692308,151,77.9,0.252508361,83,79.3,0.138795987,156,75.1,0.260869565,50,80.5,0.08361204,100,9,0,0.015050167,1,0,0,1,1,1,1,1,598,487,5,27,2861981,18274.43,High School,0.824,1,0
24Q267,High School of Applied Communication,QUEENS   ,9 to 12,40.745095,-73.936635,146,62.1,0.350119904,134,61.2,0.321342926,49,53.8,0.117505995,40,56.4,0.095923261,179,59,0.429256595,58,56.9,0.139088729,NA,NA,NA,100,6,0,0.014388489,NA,NA,NA,NA,0.93,0.89,0.67,0.67,417,322,8,18,2344924,20242.25,High School,0.784,1,0
