DBN,School Name,# of Comp Sci Courses,# of AP Comp Sci Courses,# of Full CS Courses,# of Partial CS Courses,School Type,Student Enrollment,Full Time certified STEM teachers,Part Time certified STEM teachers,Ratio of Full Time Licensed STEM Teachers to Students*,Building Code,Mbps Bandwidth,Local School Code,K-12 Enrollment,K-12 FRPL Count,Classroom Teachers w/ 0-3 Years Experience,Classroom Teachers w/ More than 3 Years Experience,Classroom Teachers,Total School Funding per Pupil,Total Teacher Response Rate,a.agree,b.agree,c.agree,3rd Mean Scale Score,3rd % Level 1,3rd % Level 2,3rd % Level 3,3rd % Level 4,3rd % Level 3+4,4th Mean Scale Score,4th % Level 1,4th % Level 2,4th % Level 3,4th % Level 4,4th % Level 3+4,5th Mean Scale Score,5th % Level 1,5th % Level 2,5th % Level 3,5th % Level 4,5th % Level 3+4,Gradespan,Address,Latitude,Longitude,% Poverty,Economic Need Index
01M015,P.S. 015 Roberto Clemente,6,0,0,6,Elementary (K-5),190,0,0,0,M015,50,M015,173,146,8,15,1969858,34942.85,100,86,86,86,616.0499878,5,0,45,50,95,603.0740967,11.11111069,40.74074173,29.62962914,18.51851845,48.14814758,601.9000244,20,45,25,10,35,PK-5,"333 EAST 4 STREET, MANHATTAN NY 10009",40.722075,-73.978747,0.847,0.89
01M140,P.S. 140 Nathan Straus,4,0,0,4,K-8,371,3,0,0.008086253,M140,100,M140,353,309,8,27,2943749,26390.92,50,,,,578.8499756,70,25,5,0,5,580.0499878,70,25,5,0,5,587.4799805,60,28,12,0,12,PK-8,"123 RIDGE STREET, MANHATTAN NY 10002",40.719148,-73.983769,0.884,0.913
01M364,Earth School,3,0,0,3,Elementary (K-5),355,0,0,0,M064,100,M364,320,174,4,26,2651409,23121.93,93,,,,588.4285889,57.1428566,28.5714283,14.28571415,0,14.28571415,587.888916,50,33.33333206,16.66666603,0,16.66666603,595.0769043,61.53845978,15.38461494,0,23.07692337,23.07692337,PK-5,"600 EAST 6 STREET, MANHATTAN NY 10009",40.72313,-73.981597,0.546,0.554
01M539,"New Explorations into Science, Technology and Math",3,1,2,1,K-12,1734,19,0,0.010957324,M022,100,,,,,,,,95,88,80,72,629.9732056,0,0.892857134,8.035714149,91.07142639,99.10713959,628.7477417,0.9009009,0.9009009,10.81081104,87.38739014,98.19819641,629.5618896,0.952380955,2.857142925,18.09523773,78.09523773,96.19047546,K-12,"111 COLUMBIA STREET, MANHATTAN NY 10002",40.719416,-73.979581,0.239,0.282
02M003,P.S. 003 Charrette School,1,0,0,1,Elementary (K-5),753,0,0,0,M003,100,M003,699,150,6.7,46.7,4434059,21310.12,68,,,,618.9777832,3.333333254,10,24.44444466,62.22222137,86.66666412,610.4381104,7.619047642,17.1428566,36.19047546,39.04761887,75.23809814,610.8235474,9.411765099,18.8235302,35.29411697,36.47058868,71.76470947,PK-5,"490 HUDSON STREET, MANHATTAN NY 10014",40.732603,-74.005949,0.219,0.202
02M006,P.S. 006 Lillie D. Blake,6,0,0,6,Elementary (K-5),694,1,0,0.001440922,M006,100,M006,616,71,9.2,32.1,3213809,20637.65,68,100,100,100,622.2174072,0,6.521739006,18.47826004,75,93.47826385,620.663269,0,9.183673859,17.34693909,73.46939087,90.81632996,624.451355,0.884955764,8.849557877,15.92920399,74.33628082,90.26548767,PK-5,"45 EAST 81 STREET, MANHATTAN NY 10028",40.777737,-73.960427,0.12,0.124
02M059,P.S. 059 Beekman Hill International,1,0,0,1,Elementary (K-5),614,0,1,0,M488,200,M059,594,54,13,30.3,3191772,19189.66,60,,,,618.1199951,4,10,27,59,86,611.416687,10,16.66666603,21.66666603,51.66666794,73.33333588,618.9888916,4.444444656,11.11111069,25.55555534,58.88888931,84.44444275,PK-5,"231-249 EAST 56 STREET, MANHATTAN NY 10019",40.759248,-73.967204,0.094,0.087
02M150,P.S. 150,4,0,0,4,Elementary (K-5),187,0,1,0,M840,100,M150,169,22,2.4,10,945316,21595.28,100,,,,612,0,6.896551609,55.17241287,37.93103409,93.10344696,616.458313,4.166666508,12.5,20.83333397,62.5,83.33333588,627.3809814,0,0,14.28571415,85.7142868,100,PK-5,"334 GREENWICH STREET, MANHATTAN NY 10013",40.71953,-74.01088,0.128,0.147
02M183,P.S. 183 Robert L. Stevenson,6,0,0,6,Elementary (K-5),588,0,0,0,M183,100,M183,548,60,6,33.5,3190862,20839.3,68,,,,618.807251,0,7.228915691,31.32530212,61.44578171,92.77108765,617.8903809,1.369863033,5.479452133,31.50684929,61.64383698,93.15068817,618.3048706,3.658536673,19.51219559,26.8292675,50,76.82926941,PK-5,"419 EAST 66 STREET, MANHATTAN NY 10065",40.763804,-73.957731,0.111,0.059
02M217,P.S./I.S. 217 Roosevelt Island,6,0,0,6,K-8,616,2,0,0.003246753,M271,50,M217,580,197,14.7,28.2,3368139,20401.08,88,100,100,100,610.0602417,8.433734894,12.04819298,38.55421829,40.96385574,79.51807404,609.6391602,13.40206146,16.49484444,23.71133995,46.39175415,70.10309601,613.2727051,12.72727299,18.18181801,25.45454597,43.63636398,69.09091187,PK-8,"645 MAIN STREET, MANHATTAN NY 10044",40.753598,-73.956435,0.343,0.28
02M267,"East Side Elementary School, PS 267",6,0,0,6,Elementary (K-5),398,0,0,0,M267,100,M267,398,41,10.3,19,2158821,20550.32,97,,,,615.5384521,3.846153736,9.615385056,30.76922989,55.76922989,86.53845978,611.9244995,7.547169685,11.320755,32.07546997,49.05660248,81.13207245,627.1199951,8,4,14,74,88,K-5,"213 EAST 63RD STREET, MANHATTAN NY 10065",40.763883,-73.963861,0.111,0.077
02M276,Battery Park City School,3,0,0,3,K-8,827,5,0,0.006045949,M276,100,M276,827,104,11,52,5029009,21093.76,94,100,100,100,613.1572876,4.494381905,13.48314571,37.07865143,44.94382095,82.02246857,614.7126465,4.597701073,14.94252872,20.6896553,59.7701149,80.4597702,612.861084,10.18518543,11.11111069,37.9629631,40.74074173,78.70370483,PK-8,"55 BATTERY PLACE, MANHATTAN NY 10280",40.706384,-74.017456,0.135,0.149
02M281,The River School,1,0,0,1,Elementary (K-5),272,0,0,0,M281,100,M281,236,70,9,13,1899525,20500.4,95,,,,619.8928833,0,10.71428585,21.4285717,67.85713959,89.2857132,608.5666504,13.33333302,13.33333302,30,43.33333206,73.33333588,,,,,,,PK-5,"425 EAST 35TH STREET, MANHATTAN NY 10016",40.744288,-73.972592,0.276,0.184
02M290,P.S. 290 Manhattan New School,5,0,0,5,Elementary (K-5),631,0,0,0,M190,100,M290,591,66,4,36.7,3393171,19838.89,76,,,,614.1046753,9.302325249,10.4651165,25.5813961,54.65116119,80.2325592,622.1264648,2.298850536,3.448275805,19.5402298,74.71264648,94.25287628,622.8414917,4.878048897,8.536585808,21.95121956,64.63414764,86.5853653,PK-5,"311 EAST 82 STREET, MANHATTAN NY 10028",40.775181,-73.952777,0.117,0.106
03M084,P.S. 084 Lillian Weber,4,0,0,4,Elementary (K-5),656,0,0,0,M084,100,M084,551,243,20,33,4023051,21229.33,100,83,83,100,608.0824585,16.49484444,12.3711338,34.02061844,37.11340332,71.13401794,604.0374756,20,23.75,20,36.25,56.25,601.8666382,24,21.33333397,32,22.66666603,54.66666794,PK-5,"32 WEST 92 STREET, MANHATTAN NY 10025",40.789479,-73.968419,0.405,0.44
03M165,P.S. 165 Robert E. Simon,9,0,0,9,K-8,604,1,0,0.001655629,M165,100,M165,573,413,24,30,2921256,25502.53,52,100,100,100,601.2131348,13.11475372,32.78688431,29.50819588,24.59016418,54.09836197,607.9420166,13.04347801,17.39130402,21.73913002,47.82608795,69.56521606,598.6707153,41.46341324,20.73170662,15.85365868,21.95121956,37.80487823,PK-5,"234 WEST 109 STREET, MANHATTAN NY 10025",40.802653,-73.965949,0.725,0.711
04M057,James Weldon Johnson,2,0,0,2,K-8,818,4,0,0.004889976,M057,100,M057,782,687,19,50,5192839,22814.19,49,,,,590.9000244,37.5,32.5,21.25,8.75,30,591.6585083,41.46341324,34.14634323,19.51219559,4.878048897,24.39024353,589.2531738,48.10126495,34.17721558,12.65822792,5.063291073,17.72151947,3K-8,"176 EAST 115 STREET, MANHATTAN NY 10029",40.797205,-73.941598,0.895,0.935
04M096,P.S. 096 Joseph Lanzetta,3,0,0,3,K-8,397,5,0,0.012594458,M096,100,M096,383,360,12,32,3637149,28867.27,91,90,80,100,588.9393921,33.33333206,45.45454407,21.21212196,0,21.21212196,582.9755859,51.21951294,39.02439117,7.317073345,2.439024448,9.756097794,583.7368164,68.42105103,26.31579018,2.631578922,2.631578922,5.263157845,3K-8,"216 EAST 120 STREET, MANHATTAN NY 10035",40.79969,-73.937179,0.95,0.95
04M102,P.S. 102 Jacques Cartier,4,0,0,4,Elementary (K-5),318,0,0,0,M102,100,M102,292,232,10,22,2693713,27371.73,67,,,,595.6122437,34.69387817,24.48979568,22.44898033,18.36734772,40.81632614,595.4650879,37.20930099,25.5813961,23.2558136,13.95348835,37.20930099,592.125,52.08333206,18.75,18.75,10.41666698,29.16666603,3K-5,"315 EAST 113 STREET, MANHATTAN NY 10029",40.795,-73.938418,0.818,0.844
05M046,P.S. 046 Arthur Tappan,6,0,3,3,K-8,661,2,0,0.003025719,M046,100,M046,626,593,20,40,4445540,25162.42,79,85,92,92,593.5,32.35293961,29.41176414,27.94117737,10.29411793,38.23529434,583.833313,57.69230652,26.92307663,12.82051277,2.56410265,15.38461494,587.9230957,52.56410217,28.20512772,17.94871712,1.282051325,19.23077011,3K-8,"2987 FREDERICK DOUGLASS BOULEVARD, MANHATTAN NY 10039",40.8304,-73.9363,0.95,0.95
05M175,P.S. 175 Henry H Garnet,6,0,0,6,Elementary (K-5),321,1,0,0.003115265,M175,100,M175,290,276,3,23,2428099,24171.58,88,80,80,80,594.5319214,34.04255295,25.53191566,27.65957451,12.76595783,40.42553329,592.2745361,43.13725662,29.41176414,17.64705849,9.8039217,27.45098114,584.7454834,61.81818008,20,14.54545498,3.636363745,18.18181801,3K-5,"175 WEST 134 STREET, MANHATTAN NY 10030",40.814388,-73.942706,0.95,0.926
05M517,Teachers College Community School,1,0,0,1,K-8,286,1,0,0.003496503,M916,100,M517,268,126,8,12,1885107,20227.75,100,,,,608.7561035,12.19512177,12.19512177,34.14634323,41.46341324,75.60975647,594.25,38.88888931,27.77777863,16.66666603,16.66666603,33.33333206,600.8485107,21.21212196,36.36363602,21.21212196,21.21212196,42.42424393,PK-7,"168 MORNINGSIDE AVENUE, MANHATTAN NY 10027",40.812428,-73.953317,0.472,0.584
06M018,P.S. 018 Park Terrace,9,0,0,9,K-8,353,2,0,0.005665722,,,M018,353,327,8.7,22,2675314,25509.28,97,100,100,100,601.7446899,19.14893532,12.76595783,46.80850983,21.27659607,68.0851059,595.8823242,20.58823586,41.17647171,29.41176414,8.823529243,38.23529434,584.2424316,63.63636398,27.27272797,3.030303001,6.060606003,9.090909004,K-8,"4124 9 AVENUE, MANHATTAN NY 10034",40.871456,-73.911732,0.926,0.895
06M048,P.S. 048 P.O. Michael J. Buczek,3,0,0,3,Elementary (K-5),543,0,1,0,M048,100,M048,507,475,22.2,29.5,3681195,26378.22,50,100,83,100,591.5280762,29.21348381,41.57303238,21.34831429,7.865168571,29.21348381,585.7999878,48.75,40,8.75,2.5,11.25,586.0449219,58.42696762,29.21348381,11.23595524,1.123595476,12.35955048,PK-5,"4360-78 BROADWAY, MANHATTAN NY 10033",40.853193,-73.933629,0.947,0.881
06M128,P.S. 128 Audubon,5,0,0,5,Elementary (K-5),586,0,0,0,M128,100,M128,516,489,12.2,41,4330655,25064.9,89,100,100,100,588.795166,40.96385574,22.89156532,28.91566277,7.228915691,36.14457703,592.333313,41.37931061,22.98850632,18.39080429,17.24137878,35.63218307,588.986084,54.16666794,23.61111069,9.722222328,12.5,22.22222137,PK-5,"560 WEST 169 STREET, MANHATTAN NY 10032",40.841032,-73.938701,0.933,0.854
06M348,Washington Heights Expeditionary Learning School,1,0,0,1,K-12,815,14,0,0.017177914,M143,100,M348,784,615,19,44,5168997,21088.68,72,100,88,88,595.8214111,32.1428566,25,25,17.8571434,42.8571434,,,,,,,,,,,,,"PK-4, 6-12","511 WEST 182ND STREET, MANHATTAN NY 10033",40.849311,-73.930991,0.773,0.839
07X161,P.S. 161 Juan Ponce De Leon School,1,0,0,1,Elementary (K-5),523,0,0,0,X161,100,X161,455,439,7,37,4075348,28693.79,94,,,,590.4310303,37.93103409,22.41379356,27.58620644,12.06896591,39.65517426,593.557373,36.06557465,24.59016418,27.86885262,11.47540951,39.34426117,588.0508423,55.9322052,23.72881317,20.33898354,0,20.33898354,3K-5,"628 TINTON AVENUE, BRONX NY 10455",40.814168,-73.905233,0.95,0.934
08X014,P.S. X014 Senator John Calandra,6,0,0,6,Elementary (K-5),547,0,0,0,X014,100,X014,547,369,5,35,3362147,21443.5,100,88,100,100,599.0782471,25.21739197,19.13043404,33.04347992,22.60869598,55.65217209,604.2653198,14.28571415,28.5714283,25.51020432,31.63265228,57.1428566,600.7647095,24.70588303,25.88235283,32.94117737,16.47058868,49.41176605,K-5,"3047 BRUCKNER BOULEVARD, BRONX NY 10461",40.835318,-73.826277,0.686,0.522
09X011,P.S. 011 Highbridge,6,0,0,6,Elementary (K-5),597,0,0,0,X011,100,X011,597,557,6,44,4548673,28020.56,49,,,,597.9869995,27.27272797,25.97402573,28.5714283,18.18181801,46.75324631,586.9195557,44.82758713,35.63218307,12.64367771,6.896551609,19.5402298,592.7340698,46.80850983,25.53191566,18.0851059,9.574467659,27.65957451,K-5,"1257 OGDEN AVENUE, BRONX NY 10452",40.839693,-73.92589,0.938,0.95
09X070,P.S. 070 Max Schoenfeld,5,0,0,5,Elementary (K-5),1227,0,0,0,X070,100,X070,1227,1181,15,76,7973959,22384.96,99,71,71,86,589.3959351,43.6548233,19.79695511,28.42639542,8.121827126,36.54822159,586.4154053,53.33333206,27.69230843,13.84615421,5.128205299,18.97435951,586.6513672,55.96330261,27.52293587,13.30275249,3.211009264,16.51376152,K-5,"1691 WEEKS AVENUE, BRONX NY 10457",40.844236,-73.90807,0.95,0.95
09X199,P.S. 199X - The Shakespeare School,6,0,0,6,Elementary (K-5),749,0,0,0,X104,20,X199,695,678,13,45,4821482,24330.98,67,86,86,86,590.4240112,41.59999847,24,20.79999924,13.60000038,34.40000153,591.0490112,44.11764526,25.49019623,18.62745094,11.76470566,30.3921566,589.9645996,49.55752182,28.31858444,17.69911575,4.424778938,22.12389374,PK-5,"1449 SHAKESPEARE AVENUE, BRONX NY 10452",40.843453,-73.920826,0.95,0.95
09X204,P.S. 204 Morris Heights,2,0,0,2,Elementary (K-5),630,0,0,0,X338,100,X204,594,506,5.5,38,3828355,23009.23,98,100,100,100,600.1546631,17.525774,26.80412292,40.20618439,15.46391773,55.67010498,604.7521973,7.964601994,40.70796585,23.89380455,27.43362808,51.32743454,604.5420532,23.36448669,25.23364449,25.23364449,26.16822433,51.40187073,PK-5,"1780 DR. MARTIN LUTHER KING JR. BLVD, BRONX NY 10453",40.849416,-73.915217,0.868,0.922
09X236,P.S. 236 Langston Hughes,6,0,0,6,Elementary (K-5),291,0,0,0,X173,100,X236,276,268,4.5,26,2759900,28547.07,97,,,,591.6383057,36.17021179,29.78723335,25.53191566,8.510638237,34.04255295,600.3800049,14,40,32,14,46,589.1738892,56.52173996,34.78260803,8.695652008,0,8.695652008,PK-5,"1871 WALTON AVENUE, BRONX NY 10453",40.848907,-73.909936,0.95,0.931
10X008,P.S. 008 Isaac Varian,4,0,0,4,Elementary (K-5),1001,0,0,0,X008,100,X008,1001,869,15,66,6632489,23883.07,89,91,91,100,587.1878662,45.45454407,29.69696999,21.21212196,3.636363745,24.84848404,590.366272,42.4418602,29.6511631,19.7674427,8.13953495,27.9069767,592.4151001,43.39622498,30.18867874,16.35220146,10.06289291,26.41509438,K-5,"3010 BRIGGS AVENUE, BRONX NY 10458",40.872259,-73.883339,0.876,0.868
10X032,P.S. 032 Belmont,5,0,0,5,Elementary (K-5),819,0,0,0,X032,100,X032,784,776,25,45,5378706,23973.77,86,88,75,75,585.0139771,53.1468544,25.87412643,15.38461494,5.594405651,20.97902107,583.1591187,58.33333206,26.51515198,11.36363602,3.787878752,15.15151501,580.2307739,72.30769348,19.23077011,7.692307472,0.769230783,8.461538315,PK-5,"690 EAST 183 STREET, BRONX NY 10458",40.851724,-73.88622,0.95,0.95
10X086,P.S. 086 Kingsbridge Heights,7,0,0,7,Elementary (K-5),1669,0,0,0,X086,100,X086,1629,1427,36,82.2,10444079,21428.21,98,100,100,100,596.9834595,29.75206566,28.51239586,21.07438087,20.66115761,41.73553848,601.5516968,25.43103409,28.87931061,14.65517235,31.03448296,45.6896553,596.5895996,37.73584747,25.94339561,25,11.320755,36.320755,PK-6,"2756 RESERVOIR AVENUE, BRONX NY 10468",40.869061,-73.897066,0.887,0.926
10X159,P.S. 159 Luis Munoz Marin Biling,6,0,0,6,Elementary (K-5),193,0,0,0,X159,100,X159,193,166,1,13,1324749,24292,100,,,,589.043457,50,19.56521797,23.91304398,6.521739006,30.43478203,591.1304321,34.78260803,39.13043594,21.73913002,4.347826004,26.08695602,594.0526123,36.84210587,31.57894707,26.31579018,5.263157845,31.57894707,K-5,"2315 WASHINGTON AVENUE, BRONX NY 10458",40.85568,-73.893136,0.865,0.931
10X205,P.S. 205 Fiorello LaGuardia,4,0,0,4,Elementary (K-5),1019,0,0,0,X205,100,,,,,,,,96,100,100,100,588.5906982,47.15026093,24.35233116,21.76165771,6.735751152,28.49740982,593.3181763,33.76623535,35.7142868,22.72727203,7.792207718,30.51947975,589.7724609,51.49700546,29.34131813,15.56886196,3.592814445,19.16167641,K-5,"2475 SOUTHERN BOULEVARD, BRONX NY 10458",40.855759,-73.881753,0.908,0.95
10X209,P.S. 209,3,0,0,3,Elementary (K-5),256,0,0,0,X209,100,X209,220,210,10,15,1602217,26060.4,92,,,,,,,,,,,,,,,,,,,,,,PK-2,"313 EAST 183RD STREET, BRONX NY 10458",40.856834,-73.897635,0.945,0.94
10X246,P.S. 246 Poe Center,4,0,0,4,Elementary (K-5),736,0,0,0,X843,20,X246,736,690,19.5,39,4998444,23838.42,78,83,83,83,585.8846436,52.30769348,24.61538506,18.46153831,4.615384579,23.07692337,583.4796753,59.34959412,21.95121956,13.00813007,5.691056728,18.69918633,585.7318726,61.59420395,24.63768196,7.246376991,6.521739006,13.768116,K-5,"2641 GRAND CONCOURSE, BRONX NY 10468",40.865972,-73.8953,0.938,0.948
10X279,"P.S. 279 Captain Manuel Rivera, Jr.",6,0,0,6,K-8,1092,6,0,0.005494505,X279,100,X279,1092,1029,20,60,6470249,22592.05,100,100,100,100,588.3739014,47.82608795,26.95652199,17.39130402,7.826086998,25.21739197,588.3894043,49.55752182,25.66371727,15.04424763,9.734513283,24.77876091,594.5703125,39.84375,33.59375,17.1875,9.375,26.5625,K-8,"2100 WALTON AVENUE, BRONX NY 10453",40.854666,-73.904958,0.95,0.95
10X306,P.S. 306,6,0,0,6,Elementary (K-5),692,0,0,0,X306,100,X306,692,617,6,48,4317416,24551.72,83,80,80,80,587.9380493,45.13274384,31.85840797,15.92920399,7.079646111,23.0088501,587.5158691,48.41269684,26.98412704,15.8730154,8.730158806,24.60317421,588.3110962,52.59259415,25.18518448,16.29629707,5.925925732,22.22222137,K-5,"40 WEST TREMONT AVENUE, BRONX NY 10453",40.850722,-73.910827,0.902,0.95
10X307,Luisa Pineiro Fuentes School of Science and Discov,4,0,0,4,Elementary (K-5),385,1,0,0.002597403,X886,100,,,,,,,,74,100,88,100,588.446167,49.23077011,21.53846169,24.61538506,4.615384579,29.23077011,588.3508911,50.87719345,31.57894707,12.28070164,5.263157845,17.54385948,591.2264404,45.28302002,24.52830124,22.64151001,7.547169685,30.18867874,K-5,"124 EAMES PLACE, BRONX NY 10468",40.869142,-73.901821,0.87,0.905
10X310,P.S. 310 Marble Hill,1,0,0,1,Elementary (K-5),749,0,0,0,X122,100,X310,677,646,16.9,40,4527467,22693.97,95,,,,596.1166382,28.33333397,29.16666603,27.5,15,42.5,588.4000244,48.18181992,31.81818199,10.909091,9.090909004,20,596.7700195,38,28,20,14,34,PK-5,"260 W KINGSBRIDGE RD, BRONX NY 10463",40.872477,-73.905547,0.95,0.885
10X382,"Elementary School for Math, Science, and Technolog",4,0,0,4,Elementary (K-5),273,0,0,0,X079,100,,,,,,,,100,,,,587.7021484,48.93616867,27.65957451,17.02127647,6.382978916,23.40425491,586.3653564,46.15384674,36.53845978,11.53846169,5.769230843,17.30769157,590.7000122,50,22.5,15,12.5,27.5,K-5,"125 EAST 181 STREET, BRONX NY 10453",40.855337,-73.903139,0.95,0.95
11X160,P.S. 160 Walt Disney,6,0,0,6,Elementary (K-5),410,0,0,0,X160,100,X160,357,252,21.5,21,2983979,29710.49,93,,,,597.3214111,17.8571434,32.1428566,41.07143021,8.928571701,50,588.7825928,45.65217209,34.78260803,17.39130402,2.173913002,19.56521797,594.4629517,35.18518448,31.48148155,22.22222137,11.11111069,33.33333206,PK-5,"4140 HUTCHINSON RIVER PKWAY EA, BRONX NY 10475",40.864073,-73.823816,0.724,0.581
11X178,P.S. 178 - Dr. Selman Waksman,5,0,0,5,Elementary (K-5),435,0,0,0,X178,100,X178,435,350,9.2,33,3104482,29285.58,86,,,,593.4857178,38.57143021,30,24.2857151,7.142857075,31.4285717,589.5180664,40.96385574,40.96385574,10.8433733,7.228915691,18.07228851,589.7738037,50,32.1428566,13.09523773,4.761904716,17.8571434,K-5,"850 BAYCHESTER AVENUE, BRONX NY 10475",40.874035,-73.831669,0.809,0.599
11X483,The Matilda Avenue School,3,0,0,3,Elementary (K-5),125,0,0,0,X314,100,X483,125,105,2,8,980107,20792.79,100,,,,,,,,,,,,,,,,,,,,,,K-3,"4520 MATILDA AVENUE, BRONX NY 10470",40.901436,-73.854402,0.848,0.782
12X150,P.S. 150 Charles James Fox,2,0,0,2,Elementary (K-5),857,0,0,0,X150,10,X150,822,775,9,56,5721733,24210.94,85,100,100,82,589.5625,39.0625,29.6875,20.3125,10.9375,31.25,588.2153931,46.92307663,30,15.38461494,7.692307472,23.07692337,592.5062256,46.25,24.375,20,9.375,29.375,PK-5,"920 EAST 167 STREET, BRONX NY 10459",40.82471,-73.894349,0.95,0.943
13K011,P.S. 011 Purvis J. Behan,5,0,0,5,Elementary (K-5),894,0,0,0,K011,10,K011,822,381,23,26,4405969,17950.39,64,100,100,100,618.2571411,4.285714149,14.28571415,23.5714283,57.8571434,81.42857361,614.3009033,5.309734344,18.58407021,23.89380455,52.2123909,76.10619354,609.5144653,10.14492798,23.91304398,37.68115997,28.26086998,65.94203186,PK-5,"419 WAVERLY AVENUE, BROOKLYN NY 11238",40.685896,-73.96589,0.456,0.477
13K307,P.S. 307 Daniel Hale Williams,3,0,0,3,Elementary (K-5),366,0,0,0,K307,100,K307,323,267,10,35,3747835,32375.87,48,,,,587.0222168,55.55555725,20,20,4.444444656,24.44444466,590.0377197,37.73584747,33.96226501,26.41509438,1.886792421,28.30188751,596,42.8571434,17.1428566,25.7142849,14.28571415,40,PK-5,"209 YORK STREET, BROOKLYN NY 11201",40.701789,-73.981599,0.792,0.825
14K016,P.S. 016 Leonard Dunkly,4,0,0,4,Elementary (K-5),223,0,0,0,K016,10,K016,211,192,4.2,15,1652986,30148.16,100,,,,589.75,45,20,30,5,35,586.1714478,57.1428566,20,20,2.857142925,22.8571434,589.2120972,45.45454407,36.36363602,15.15151501,3.030303001,18.18181801,PK-5,"157 WILSON STREET, BROOKLYN NY 11211",40.706069,-73.962049,0.924,0.95
14K084,P.S. 084 Jose De Diego,6,0,0,6,K-8,793,1,0,0.001261034,K084,100,K084,724,360,21,63,6803094,26892.08,92,100,100,100,595.25,33.33333206,25,26.38888931,15.27777767,41.66666794,602.7653198,11.22449017,30.61224556,34.69387817,23.46938705,58.16326523,600.652771,26.38888931,30.55555534,25,18.05555534,43.05555725,PK-8,"250 BERRY STREET, BROOKLYN NY 11211",40.715089,-73.963808,0.485,0.58
14K132,P.S. 132 The Conselyea School,5,0,0,5,Elementary (K-5),723,0,0,0,K132,20,K132,651,277,6,39,4005900,20212.51,93,,,,605.6853638,20.22472,19.10112381,28.08988762,32.58427048,60.67415619,605.3270874,12.14953232,30.84112167,29.90654182,27.10280418,57.00934601,611.3571167,2.380952358,15.47619057,50,32.1428566,82.14286041,PK-5,"320 MANHATTAN AVENUE, BROOKLYN NY 11211",40.714772,-73.945663,0.429,0.537
14K147,P.S. 147 Isaac Remsen,6,0,0,6,Elementary (K-5),360,0,0,0,K147,100,K147,303,226,2,27,2713878,24462.97,97,,,,599.3713989,28.5714283,11.4285717,54.2857132,5.714285851,60,601.8386841,19.35483932,29.03225899,29.03225899,22.58064461,51.61290359,589.3703613,55.55555725,18.51851845,25.92592621,0,25.92592621,PK-5,"325 BUSHWICK AVENUE, BROOKLYN NY 11206",40.705005,-73.93879,0.731,0.785
14K196,P.S. 196 Ten Eyck,6,0,0,6,Elementary (K-5),317,0,0,0,K196,50,K196,295,257,7.2,24,2435751,29818.79,100,,,,602.277771,19.44444466,19.44444466,30.55555534,30.55555534,61.11111069,592.8250122,35,37.5,20,7.5,27.5,586.68573,62.8571434,22.8571434,14.28571415,0,14.28571415,PK-5,"207 BUSHWICK AVENUE, BROOKLYN NY 11206",40.708804,-73.939385,0.88,0.884
14K414,Brooklyn Arbor Elementary School,6,0,0,6,Elementary (K-5),597,0,0,0,K019,50,K414,561,353,10,33,3414415,20743.87,91,,,,605.916687,12.5,13.54166698,43.75,30.20833397,73.95833588,596.3936157,30.85106468,27.65957451,19.14893532,22.34042549,41.48936081,599.947937,31.25,22.91666603,22.91666603,22.91666603,45.83333206,PK-5,"325 SOUTH 3 STREET, BROOKLYN NY 11211",40.710107,-73.954678,0.628,0.616
15K029,P.S. 029 John M. Harrigan,4,0,0,4,Elementary (K-5),927,0,0,0,K029,200,K029,891,102,8,51,5145032,18961.36,76,100,88,88,613.8031616,3.149606228,10.23622036,37.79527664,48.81889725,86.61417389,611.8823242,7.563024998,9.243697166,30.25209999,52.94117737,83.19327545,610.9504395,16.52892494,9.917355537,30.57851219,42.97520828,73.55371857,PK-5,"425 HENRY STREET, BROOKLYN NY 11201",40.686843,-73.997447,0.123,0.114
15K107,P.S. 107 John W. Kimball,6,0,0,6,Elementary (K-5),567,0,0,0,K107,10,K107,567,43,5.6,32,3287653,19121.19,81,100,100,100,618.3132324,2.409638643,6.024096489,25.30120468,66.26506042,91.56626129,616.1304321,1.086956501,15.21739101,30.43478203,53.26086807,83.69565582,618.3522949,0,7.954545498,36.36363602,55.68181992,92.04545593,K-5,"1301 8 AVENUE, BROOKLYN NY 11215",40.662945,-73.981181,0.079,0.093
15K130,P.S. 130 The Parkside,5,0,0,5,Elementary (K-5),832,0,0,0,K130,10,K130,760,307,16,44,5364000,22887.13,98,,,,605.7129517,4.629629612,27.77777863,41.66666794,25.92592621,67.59259033,602.604187,17.70833397,33.33333206,20.83333397,28.125,48.95833206,608.8444214,11.11111069,18.88888931,37.77777863,32.22222137,70,PK-5,"70 OCEAN PARKWAY, BROOKLYN NY 11218",40.648924,-73.976053,0.411,0.485
15K516,Sunset Park Avenues Elementary School,5,0,0,5,Elementary (K-5),432,0,0,0,K333,100,K516,373,332,18,20.6,3136181,22123.7,95,,,,592.9833374,36.66666794,23.33333397,31.66666603,8.333333015,40,592.5,31.57894707,52.63158035,7.894736767,7.894736767,15.78947353,,,,,,,PK-5,"4222 4TH AVENUE, BROOKLYN NY 11232",40.650793,-74.008106,0.877,0.843
15K676,Red Hook Neighborhood School,6,0,0,6,Elementary (K-5),193,0,0,0,K027,10,K676,178,176,6,11,1399695,27579.86,69,,,,578.7297363,64.86486816,18.91891861,13.51351357,2.702702761,16.21621704,580.708313,58.33333206,25,12.5,4.166666508,16.66666603,578,81.25,15.625,0,3.125,3.125,PK-5,"27 HUNTINGTON STREET, BROOKLYN NY 11231",40.677914,-74.005151,0.95,0.949
16K005,P.S. 005 Dr. Ronald Mcnair,6,0,0,6,Elementary (K-5),208,0,0,0,K005,50,,,,,,,,100,50,50,50,591.0769043,42.30769348,15.38461494,34.61538315,7.692307472,42.30769348,592.2857056,38.09523773,19.04761887,28.5714283,14.28571415,42.8571434,590.5714111,42.8571434,38.09523773,14.28571415,4.761904716,19.04761887,3K-5,"820 HANCOCK STREET, BROOKLYN NY 11233",40.685241,-73.92197,0.894,0.856
16K025,P.S. 025 Eubie Blake School,5,0,0,5,Elementary (K-5),102,0,0,0,K025,100,K025,94,94,1,16,1314954,49902.67,88,,,,613.5999756,6.666666508,13.33333302,33.33333206,46.66666794,80,604.2999878,20,20,30,30,60,605.625,18.75,12.5,37.5,31.25,68.75,PK-5,"787 LAFAYETTE AVENUE, BROOKLYN NY 11221",40.691472,-73.940749,0.95,0.95
16K040,P.S. 040 George W. Carver,6,0,0,6,Elementary (K-5),318,0,0,0,K040,50,K040,283,247,1,23,2365299,25798.42,100,100,100,100,604.4146118,21.95121956,17.07317162,21.95121956,39.02439117,60.97560883,605.7958984,10.20408154,26.53061295,30.61224556,32.65306091,63.26530457,605.2438965,29.26829338,17.07317162,21.95121956,31.70731735,53.658535,3K-5,"265 RALPH AVENUE, BROOKLYN NY 11233",40.680239,-73.921099,0.881,0.921
16K335,P.S. 335 Granville T. Woods,6,0,0,6,Elementary (K-5),246,0,0,0,K335,10,K335,229,206,0,26,2312221,30769.03,93,80,80,80,595.7999878,17.1428566,34.2857132,37.1428566,11.4285717,48.57143021,591.2702637,37.83783722,29.72973061,13.51351357,18.91891861,32.43243408,590.7714233,40,37.1428566,20,2.857142925,22.8571434,PK-5,"130 ROCHESTER AVENUE, BROOKLYN NY 11213",40.674491,-73.928673,0.911,0.9
16K627,Brighter Choice Community School,1,0,0,1,Elementary (K-5),303,0,0,0,K304,10,K627,266,231,11,10,1885495,22459.41,91,100,100,100,598.3499756,27.5,20,40,12.5,52.5,597.5806274,25.8064518,25.8064518,35.48387146,12.9032259,48.38709641,595.5675659,40.54053879,18.91891861,18.91891861,21.62162209,40.54053879,3K-5,"280 HART STREET, BROOKLYN NY 11206",40.693654,-73.941278,0.845,0.803
17K006,Norma Adams Clemons Academy,6,0,0,6,Elementary (K-5),667,0,1,0,K006,10,K006,667,563,10.2,48,4630152,25622.8,66,100,100,100,588.625,50,15,25.83333397,9.166666985,35,585.2166748,58.33333206,23.33333397,7.5,10.83333302,18.33333397,589,54.16666794,32.29166794,10.41666698,3.125,13.54166698,K-5,"43 SNYDER AVENUE, BROOKLYN NY 11226",40.648973,-73.956279,0.868,0.881
17K241,P.S. 241 Emma L. Johnston,6,0,0,6,Elementary (K-5),521,0,0,0,K241,20,K241,464,412,4,34,3209580,23333.73,69,,,,601.0126343,18.98734093,15.1898737,40.50632858,25.31645584,65.82278442,600.3561401,17.80821991,28.76712418,35.61643982,17.80821991,53.42465591,599.4819336,34.9397583,20.48192787,24.09638596,20.48192787,44.57831192,PK-5,"976 PRESIDENT STREET, BROOKLYN NY 11225",40.668913,-73.960924,0.881,0.801
17K289,P.S. 289 George V. Brower,4,0,0,4,Elementary (K-5),394,0,0,0,K289,10,K289,361,288,1.9,31,3153361,30009.31,55,100,100,100,595.0645142,32.25806427,25.8064518,29.03225899,12.9032259,41.93548203,594.8793335,34.48275757,31.03448296,20.6896553,13.79310322,34.48275757,604.8813477,18.64406776,28.81355858,33.89830399,18.64406776,52.54237366,PK-5,"900 ST MARKS AVENUE, BROOKLYN NY 11213",40.674244,-73.942401,0.815,0.855
17K316,P.S. 316 Elijah Stroud,6,0,0,6,Elementary (K-5),539,0,0,0,K316,100,K316,494,334,14,32,4105349,26093.51,77,100,86,100,604.1392212,16.45569611,18.98734093,32.91139221,31.64556885,64.55696106,611.5818481,3.636363745,20,30.90909004,45.45454407,76.36363983,595.9799805,34,44,12,10,22,PK-5,"750 CLASSON AVENUE, BROOKLYN NY 11238",40.674685,-73.961418,0.672,0.647
17K375,P.S. 375 Jackie Robinson School,6,0,0,6,Elementary (K-5),387,1,0,0.002583979,K320,100,K375,360,334,1,34,2767081,31086.75,81,,,,591.3653564,40.38461685,23.07692337,28.84615326,7.692307472,36.53845978,589.9428711,41.42856979,32.8571434,20,5.714285851,25.7142849,591.3478394,46.37681198,33.33333206,14.49275398,5.797101498,20.28985596,PK-5,"46 MCKEEVER PLACE, BROOKLYN NY 11225",40.665199,-73.959484,0.928,0.856
18K066,P.S. 66,7,0,0,7,K-8,822,4,0,0.00486618,K066,10,K066,791,565,15.5,40,4716140,19797.32,89,100,100,100,614.5571289,1.428571463,8.571428299,34.2857132,55.7142868,90,609.6842041,6.578947544,22.36842155,30.2631588,40.78947449,71.05263519,597.0978394,32.60869598,33.69565201,21.73913002,11.95652199,33.69565201,PK-8,"845 EAST 96 STREET, BROOKLYN NY 11236",40.648749,-73.907064,0.727,0.608
18K208,P.S. 208 Elsa Ebeling,6,0,0,6,Elementary (K-5),380,0,0,0,K208,10,K208,356,297,7.5,27.7,2758370,27908.09,59,,,,591.25,36.36363602,25,29.54545403,9.090909004,38.63636398,592.2203369,40.67796707,35.59321976,13.55932236,10.16949177,23.72881317,589.1911621,51.47058868,26.47058868,13.23529434,8.823529243,22.05882263,PK-5,"4801 AVENUE D, BROOKLYN NY 11203",40.6427,-73.930898,0.845,0.72
18K219,P.S. 219 Kennedy-King,5,0,0,5,Elementary (K-5),534,0,0,0,K219,10,K219,469,366,0,39,3479967,25894.93,46,80,80,80,588.7260132,47.94520569,23.28767204,23.28767204,5.479452133,28.76712418,592.5593262,45.76271057,23.72881317,18.64406776,11.86440659,30.50847435,586.6704712,64.77272797,15.909091,11.36363602,7.954545498,19.31818199,PK-5,"1060 CLARKSON AVENUE, BROOKLYN NY 11212",40.658834,-73.922296,0.801,0.834
18K233,P.S. 233 Langston Hughes,1,0,0,1,Elementary (K-5),457,0,0,0,K233,10,K233,411,353,3.2,34,3299269,25710.63,100,100,100,100,602.2174072,19.56521797,15.21739101,45.65217209,19.56521797,65.21739197,588.0270386,43.24324417,41.89189148,13.51351357,1.35135138,14.8648653,589.8059692,52.23880768,31.3432827,11.94029808,4.477612019,16.41790962,PK-5,"9301 AVENUE B, BROOKLYN NY 11236",40.651642,-73.914282,0.864,0.721
18K268,P.S. 268 Emma Lazarus,6,0,0,6,Elementary (K-5),383,0,0,0,K268,40,K268,348,305,10,23,2587590,23775.58,88,,,,595.4489746,32.65306091,22.44898033,28.5714283,16.32653046,44.89796066,593.8200073,32,36,20,12,32,588.3499756,56.66666794,26.66666603,11.66666698,5,16.66666603,PK-5,"133 EAST 53 STREET, BROOKLYN NY 11203",40.657421,-73.92756,0.872,0.819
19K159,P.S. 159 Isaac Pitkin,4,0,0,4,Elementary (K-5),798,0,0,0,K159,10,K159,798,674,7.5,51,4583510,21723.81,100,,,,599.4821167,27.6785717,18.75,31.25,22.3214283,53.57143021,596.3307495,36.15384674,30,13.84615421,20,33.84615326,591.3862305,52.41379166,19.3103447,17.93103409,10.34482765,28.27586174,K-5,"2781 PITKIN AVENUE, BROOKLYN NY 11208",40.676111,-73.869705,0.857,0.899
19K306,P.S. 306 Ethan Allen,6,0,0,6,Elementary (K-5),329,0,0,0,K306,50,K306,298,287,4.2,24,2748352,33875.24,90,,,,588.8261108,45.65217209,34.78260803,15.21739101,4.347826004,19.56521797,597.7872314,17.02127647,38.29787064,36.17021179,8.510638237,44.68085098,583.2241211,65.51724243,24.13793182,1.724137902,8.620689392,10.34482765,PK-5,"970 VERMONT STREET, BROOKLYN NY 11207",40.65534,-73.88662,0.95,0.95
19K325,The Fresh Creek School,6,0,0,6,Elementary (K-5),211,0,0,0,K260,10,K325,196,185,3,15,1374586,26624.5,83,,,,601.25,9.375,28.125,50,12.5,62.5,594.7142944,39.2857132,28.5714283,17.8571434,14.28571415,32.1428566,595.5142822,37.1428566,31.4285717,25.7142849,5.714285851,31.4285717,PK-5,"875 WILLIAMS AVENUE, BROOKLYN NY 11207",40.653368,-73.893294,0.943,0.915
19K328,P.S. 328 Phyllis Wheatley,6,0,0,6,Elementary (K-5),289,0,0,0,K328,50,K328,258,253,2.9,24,2911659,33507.97,77,,,,581.666687,76.66666412,16.66666603,3.333333254,3.333333254,6.666666508,597.2045288,29.54545403,34.09090805,15.909091,20.45454597,36.36363602,583.7272949,66.66666412,12.12121201,15.15151501,6.060606003,21.21212196,PK-5,"330 ALABAMA AVENUE, BROOKLYN NY 11207",40.667985,-73.898249,0.95,0.95
19K345,P.S. 345 Patrolman Robert Bolden,6,0,0,6,Elementary (K-5),535,0,0,0,K345,20,K345,502,427,7,38,3385007,26096.5,76,80,,80,590.6781616,43.67816162,25.28735542,17.24137878,13.79310322,31.03448296,587.2988281,51.72413635,21.83908081,17.24137878,9.195402145,26.43678093,594.7316895,43.90243912,21.95121956,18.29268265,15.85365868,34.14634323,PK-5,"111 BERRIMAN STREET, BROOKLYN NY 11208",40.676207,-73.879886,0.86,0.9
20K030,P.S./I.S. 30 Mary White Ovington,7,0,2,5,K-8,911,9,0,0.009879254,K331,40,K030,911,729,26,43,6597795,21552.59,85,75,75,75,602.4019775,23.52941132,15.68627453,26.47058868,34.31372452,60.7843132,601.3431396,23.52941132,24.50980377,24.50980377,27.45098114,51.96078491,,,,,,,K-8,"7002 4TH AVENUE, BROOKLYN NY 11209",40.633598,-74.02395,0.806,0.761
20K104,P.S./I.S. 104 The Fort Hamilton School,6,0,0,6,K-8,1265,3,1,0.002371542,K104,30,K104,1265,810,12.5,63,6483512,19722.7,84,100,100,,612.7350464,6.837606907,12.82051277,34.18803406,46.15384674,80.3418808,614.2149658,12.14953232,16.82242966,21.495327,49.53271103,71.02803802,610.9295654,19.7183094,18.30985832,21.12676048,40.84506989,61.97183228,K-8,"9115 5 AVENUE, BROOKLYN NY 11209",40.618077,-74.028492,0.644,0.55
20K105,P.S. 105 The Blythebourne,6,0,0,6,Elementary (K-5),1507,0,0,0,K105,100,K105,1507,1327,21.2,76,8135707,19829.52,91,100,63,100,609.9685059,8.661417007,13.77952766,38.18897629,39.37007904,77.55905151,619.0042114,2.953586578,13.50210953,21.0970459,62.447258,83.54430389,621.675354,4.329004288,10.38961029,27.27272797,58.00865936,85.28138733,K-5,"1031 59 STREET, BROOKLYN NY 11219",40.63332,-74.003635,0.898,0.927
20K112,P.S. 112 Lefferts Park,6,0,0,6,Elementary (K-5),681,0,1,0,K112,10,K112,661,470,17.9,35.5,4357149,21791.01,96,100,100,100,606.4050903,10.12658215,20.25316429,36.7088623,32.91139221,69.62025452,607.8620605,9.195402145,32.18390656,22.98850632,35.63218307,58.62068939,610.2727051,17.17171669,13.13131332,32.32323074,37.37373734,69.69696808,PK-5,"7115 15 AVENUE, BROOKLYN NY 11228",40.619417,-74.000565,0.721,0.756
20K160,P.S. 160 William T. Sampson,6,0,0,6,Elementary (K-5),1274,0,0,0,K160,100,K160,1274,1090,32.2,73.8,8004863,22774.14,82,100,89,88,608.0043335,10.43478298,13.91304302,40,35.65217209,75.6521759,610.6572876,11.26760578,16.90140915,23.00469398,48.82629013,71.83098602,610.5865479,12.5,24.03846169,25,38.46154022,63.46154022,K-5,"5105 Fort Hamilton Parkway, BROOKLYN NY 11219",40.636932,-73.999045,0.87,0.92
20K205,P.S. 205 Clarion,6,0,0,6,Elementary (K-5),1278,0,1,0,K205,40,K205,1224,820,25.9,68.7,8070589,23466.14,58,63,75,63,607.4104004,18.86792374,15.56603813,23.11320686,42.45283127,65.56604004,612.3687134,11.17318439,23.4636879,17.31843567,48.04469299,65.36312866,611.5388794,12.43523312,20.20725441,23.83419609,43.52331543,67.35751343,PK-5,"6701 20 AVENUE, BROOKLYN NY 11204",40.614737,-73.986792,0.681,0.733
20K229,P.S. 229 Dyker,5,0,0,5,K-8,1249,3,0,0.002401922,K229,100,K229,1217,728,12.9,64,7123229,19202.57,74,89,89,89,612.6400146,10.39999962,12.80000019,27.20000076,49.59999847,76.80000305,619.7451172,4.575163364,11.76470566,20.26143837,63.39869308,83.66013336,619.2785645,6.428571224,13.5714283,25.7142849,54.2857132,80,PK-8,"1400 BENSON AVENUE, BROOKLYN NY 11228",40.610331,-74.013585,0.607,0.505
20K682,The Academy of Talented Scholars,3,0,0,3,Elementary (K-5),378,0,0,0,K237,50,K682,378,143,14,40,4164815,35977.62,89,,,,612.3166504,6.666666508,8.333333015,43.33333206,41.66666794,85,603.1956787,15.21739101,30.43478203,32.60869598,21.73913002,54.34782791,611.0425415,6.382978916,36.17021179,19.14893532,38.29787064,57.44680786,K-5,"50 AVENUE P, BROOKLYN NY 11204",40.606994,-73.986678,0.381,0.394
20K748,P.S. 748 Brooklyn School for Global Scholars,6,0,0,6,Elementary (K-5),548,0,0,0,K163,100,K748,548,401,10,28.5,3100431,21841.19,86,100,100,100,612.911377,2.531645536,13.92405033,41.77215195,41.77215195,83.54430389,624.0736694,3.15789485,14.73684216,10.52631569,71.57894897,82.10526276,617.2626343,12.12121201,17.17171669,11.11111069,59.59595871,70.7070694,K-5,"1664 BENSON AVENUE, BROOKLYN NY 11214",40.606739,-74.007469,0.732,0.654
21K177,P.S. 177 The Marlboro,4,0,0,4,Elementary (K-5),1022,0,0,0,K177,10,K177,950,727,13,59.7,6405959,22554.62,96,100,100,100,597.5540771,29.72973061,17.56756783,35.13513565,17.56756783,52.70270157,601.3624878,21.875,30.625,21.25,26.25,47.5,599.8616333,28.93081856,28.30188751,27.04402542,15.72327042,42.76729584,PK-5,"346 AVENUE P, BROOKLYN NY 11204",40.608169,-73.974425,0.785,0.803
21K216,P.S. 216 Arturo Toscanini,3,0,0,3,Elementary (K-5),762,0,0,0,K216,10,K216,661,498,13,38.7,4627200,23218.75,88,,,,599.8214111,19.6428566,27.6785717,27.6785717,25,52.67856979,604.7766724,22.3300972,22.3300972,19.41747665,35.92232895,55.3398056,603.3214111,25.8928566,25.8928566,22.3214283,25.8928566,48.2142868,PK-5,"350 AVENUE X, BROOKLYN NY 11223",40.59,-73.969647,0.753,0.679
21K238,P.S. 238 Anne Sullivan,6,0,0,6,K-8,611,3,0,0.004909984,K238,10,K238,539,449,11.2,44,4665217,26550.48,83,100,100,100,594.4255371,27.65957451,29.78723335,29.78723335,12.76595783,42.55319214,598.9807739,28.84615326,28.84615326,13.46153831,28.84615326,42.30769348,583.7894897,63.15789413,29.82456207,7.017543793,0,7.017543793,PK-8,"1633 EAST 8 STREET, BROOKLYN NY 11223",40.608801,-73.964586,0.846,0.869
22K052,P.S. 052 Sheepshead Bay,3,0,0,3,Elementary (K-5),823,0,0,0,K052,10,K052,751,567,9,50,5074110,23733.04,98,,,,608.4916382,16.66666603,14.16666698,25,44.16666794,69.16666412,596.7258301,29.83870888,28.22580719,26.61290359,15.32258034,41.93548203,602.5488892,30.82706833,18.79699326,23.30827141,27.06766891,50.37593842,PK-5,"2675 EAST 29 STREET, BROOKLYN NY 11235",40.588372,-73.940135,0.764,0.701
22K109,P.S. 109,8,0,2,6,K-8,681,3,0,0.004405286,K395,30,K109,653,566,13,39,4513071,25694.71,94,91,91,100,593.625,32.1428566,32.1428566,26.7857151,8.928571701,35.7142868,598.5,32.89473724,25,18.42105293,23.68420982,42.10526276,590.4202881,56.52173996,20.28985596,11.594203,11.594203,23.18840599,PK-8,"1001 EAST 45 STREET, BROOKLYN NY 11203",40.635842,-73.933099,0.872,0.75
22K119,P.S. 119 Amersfort,1,0,0,1,Elementary (K-5),442,0,0,0,K119,10,K119,408,295,3.3,29,3132831,23317.18,100,,,,594.0632935,25.31645584,30.37974739,43.03797531,1.265822768,44.30379868,595.8764038,25.84269714,39.32584381,21.34831429,13.48314571,34.83145905,596.4634399,31.70731735,37.80487823,19.51219559,10.97560978,30.48780441,PK-5,"3829 AVENUE K, BROOKLYN NY 11210",40.626038,-73.938733,0.733,0.726
22K195,P.S. 195 Manhattan Beach,2,0,0,2,Elementary (K-5),481,0,0,0,K195,10,K195,463,143,10,19,2444468,18734.17,69,,,,616.152771,2.777777672,11.11111069,29.16666603,56.94444275,86.1111145,614.347229,2.777777672,18.05555534,27.77777863,51.38888931,79.16666412,616.5769043,1.282051325,12.82051277,35.89743423,50,85.89743805,PK-5,"131 IRWIN STREET, BROOKLYN NY 11235",40.580161,-73.943498,0.322,0.318
22K197,P.S. 197 - The Kings Highway Academy,2,0,0,2,Elementary (K-5),664,0,0,0,K197,20,K197,597,376,11,42,4633817,22951.32,87,,,,611.4851685,9.900990486,13.8613863,26.73267365,49.50495148,76.23762512,604.1881104,18.81188202,30.69306946,20.79207993,29.7029705,50.49504852,603.6626587,21.6867466,22.89156532,27.71084404,27.71084404,55.42168808,PK-5,"1599 EAST 22 STREET, BROOKLYN NY 11210",40.612339,-73.951398,0.646,0.691
22K222,P.S. 222 Katherine R. Snyder,1,0,0,1,Elementary (K-5),932,0,0,0,K222,50,K222,896,482,13.5,68,6826774,26032.85,84,100,100,100,612.4000244,3.333333254,20.66666603,30.66666603,45.33333206,76,616.439209,6.081080914,14.8648653,20.27026939,58.78378296,79.05405426,609.755127,10.88435364,17.68707466,34.01360703,37.41496658,71.42857361,K-5,"3301 QUENTIN ROAD, BROOKLYN NY 11234",40.614005,-73.939205,0.54,0.435
22K251,P.S. 251 Paerdegat,6,0,0,6,Elementary (K-5),524,0,0,0,K251,10,K251,470,346,9,35,3227697,26040.34,89,100,100,100,589.4000244,42.66666794,32,21.33333397,4,25.33333397,592.6500244,38.75,33.75,18.75,8.75,27.5,588.4000244,54.2857132,21.4285717,20,4.285714149,24.2857151,PK-5,"1037 EAST 54 STREET, BROOKLYN NY 11234",40.63195,-73.923894,0.75,0.77
22K254,P.S. 254 Dag Hammarskjold,6,0,0,6,Elementary (K-5),789,0,0,0,K254,100,K254,772,439,9,40,4377543,20735.1,85,50,50,67,614.6746216,2.380952358,14.28571415,31.74603081,51.58730316,83.33333588,614.1694946,6.779661179,18.64406776,22.88135529,51.69491577,74.57627106,610.3468018,11.2903223,24.1935482,25,39.51612854,64.51612854,K-5,"1801 AVENUE Y, BROOKLYN NY 11235",40.591103,-73.95155,0.58,0.549
22K315,P.S. K315,6,0,0,6,Elementary (K-5),677,0,0,0,K152,50,K315,641,572,5.2,47,4669014,24367.74,62,,,,596.2695923,31.30434799,20,32.17391205,16.52173996,48.69565201,590.3932495,46.06741714,21.34831429,21.34831429,11.23595524,32.58427048,591.7113647,48.45360947,27.83505249,15.46391773,8.247422218,23.71133995,PK-5,"2310 GLENWOOD ROAD, BROOKLYN NY 11210",40.632619,-73.954269,0.903,0.835
22K326,P.S. 326,1,0,0,1,Elementary (K-5),191,0,0,0,K852,10,K326,163,138,2,17,1597680,29995.06,95,,,,,,,,,,,,,,,,,,,,,,PK-2,"1800 UTICA AVENUE, BROOKLYN NY 11234",40.628417,-73.92825,0.843,0.734
22K361,P.S. 361 East Flatbush Early Childhood School,2,0,0,2,Elementary (K-5),418,0,0,0,K864,10,K361,368,324,6,27,4725812,25832.97,97,,,,,,,,,,,,,,,,,,,,,,PK-5,"1957 NOSTRAND AVENUE, BROOKLYN NY 11210",40.637625,-73.947672,0.888,0.857
23K599,Brooklyn Landmark Elementary School,6,0,0,6,Elementary (K-5),325,0,0,0,K073,100,K599,294,222,14,12,2064740,22592.54,100,,,,610.6078491,0,19.6078434,43.13725662,37.25490189,80.39215851,607.7073364,2.439024448,21.95121956,51.21951294,24.39024353,75.60975647,616.4650879,4.651162624,18.6046505,23.2558136,53.4883728,76.7441864,3K-5,"251 MAC DOUGAL STREET, BROOKLYN NY 11233",40.680679,-73.910719,0.757,0.809
24Q007,P.S. 007 Louis F. Simeone,2,0,0,2,Elementary (K-5),993,0,0,0,Q007,10,Q007,942,831,8.7,59,8658060,21401.88,75,,,,604.0180054,12.16216183,24.77477455,37.38738632,25.67567635,63.06306458,,,,,,,,,,,,,PK-5,"80-55 CORNISH AVENUE, QUEENS NY 11373",40.739644,-73.882446,0.891,0.78
24Q019,P.S. 019 Marino Jeantet,3,0,0,3,Elementary (K-5),1891,0,0,0,Q019,10,Q019,1891,1731,25.6,119.7,12315340,22716.74,84,96,96,96,594.1080933,30.3303299,30.63063049,30.3303299,8.708708763,39.03903961,597.2006226,25.83586693,35.258358,23.10030365,15.80547142,38.90577698,596.1383057,40.07092285,26.59574509,21.27659607,12.0567379,33.33333206,K-5,"98-02 ROOSEVELT AVENUE, QUEENS NY 11368",40.7486,-73.866557,0.921,0.891
24Q049,P.S. 049 Dorothy Bonawit Kole,6,0,0,6,K-8,1160,7,0,0.006034483,Q049,20,Q049,1160,551,16,57,6137833,18558.62,46,100,100,80,601.3302612,19.26605415,22.01834869,36.69724655,22.01834869,58.71559525,608.3781738,14.28571415,21.00840378,21.84873962,42.8571434,64.70587921,612.1610107,11.86440659,22.88135529,23.72881317,41.52542496,65.25423431,K-8,"63-60 80th Street, QUEENS NY 11379",40.719567,-73.875493,0.479,0.385
24Q058,P.S. 58 - The School of Heroes,7,0,0,7,Elementary (K-5),1027,0,2,0,Q058,20,Q058,991,755,14,54.4,5677028,20964.29,75,38,38,29,598.7174072,21.73913002,24.63768196,34.78260803,18.84057999,53.62318802,604.5955811,13.97058868,30.88235283,24.26470566,30.88235283,55.14706039,602.3228149,25.31645584,25.31645584,25.31645584,24.05063248,49.36708832,PK-6,"72-24 GRAND AVENUE, QUEENS NY 11378",40.728517,-73.890638,0.771,0.596
24Q068,P.S. 068 Cambridge,4,0,0,4,Elementary (K-5),646,0,0,0,Q068,20,Q068,605,426,4,47,4138639,23015.8,88,,,,592.8192749,31.32530212,36.14457703,24.09638596,8.433734894,32.53012085,597.862915,29.03225899,31.45161247,24.1935482,15.32258034,39.51612854,596.9697266,33.33333206,36.36363602,17.17171669,13.13131332,30.30303001,PK-5,"59-09 SAINT FELIX AVENUE, QUEENS NY 11385",40.696961,-73.897372,0.721,0.744
24Q071,P.S. 071 Forest,3,0,0,3,Elementary (K-5),752,0,0,0,Q071,100,Q071,696,603,10,56,5093212,25463.28,57,100,100,100,591.2999878,36,31,24,9,33,595.6692505,30.76922989,28.46153831,31.53846169,9.230769157,40.76922989,595.7241211,37.93103409,25.86206818,19.82758713,16.37931061,36.20689774,PK-5,"62-85 FOREST AVENUE, QUEENS NY 11385",40.711388,-73.904798,0.872,0.738
24Q088,P.S. 088 Seneca,1,0,0,1,Elementary (K-5),941,0,0,0,Q088,10,Q088,909,690,8,65,6067737,25108.51,93,67,67,67,594.0187378,31.25,30,29.375,9.375,38.75,599,31.64556885,26.58227921,16.45569611,25.31645584,41.77215195,595.9130249,38.40579605,28.98550797,23.18840599,9.420289993,32.60869598,PK-5,"60-85 CATALPA AVENUE, QUEENS NY 11385",40.704105,-73.896437,0.759,0.682
24Q110,P.S. 110,4,0,0,4,Elementary (K-5),790,0,1,0,Q315,10,Q110,790,732,29.7,30.7,5268975,20975.53,57,,,,602.3070679,18.89763832,22.04724503,33.85826874,25.19684982,59.05511856,600.0200195,18,36,32,14,46,600.6140137,26.31579018,26.31579018,33.33333206,14.03508759,47.36841965,K-5,"43-18 97TH PLACE, QUEENS NY 11368",40.745995,-73.866372,0.946,0.905
24Q113,P.S./I.S. 113 Anthony J. Pranzo,3,0,0,3,K-8,896,3,0,0.003348214,Q113,30,Q113,896,497,5,50,4865034,19779.24,100,89,100,100,606.0999756,10,16.66666603,48.88888931,24.44444466,73.33333588,606.3478394,2.173913002,33.69565201,39.13043594,25,64.13043213,608.2322998,14.14141369,26.26262665,29.2929287,30.30303001,59.59595871,PK-8,"78-23 87TH STREET, QUEENS NY 11385",40.705476,-73.861493,0.566,0.338
24Q119,I.S. 119 The Glendale,9,0,0,9,K-8,1277,10,0,0.007830854,Q119,50,Q119,1277,936,23,49,6547476,17669.57,82,100,100,100,613.0571289,10.47619057,11.4285717,29.52380943,48.57143021,78.09523773,616.2280884,3.508771896,18.42105293,21.92982483,56.14035034,78.07017517,610.4318237,18.18181801,20.45454597,22.72727203,38.63636398,61.36363602,K-8,"74-01 78 AVENUE, QUEENS NY 11385",40.705187,-73.875073,0.742,0.472
24Q153,P.S. 153 Maspeth Elem,5,0,0,5,Elementary (K-5),1204,0,0,0,Q153,20,Q153,1151,818,2.5,76,6670840,21386.72,81,100,100,100,606.4561157,11.69590664,22.22222137,29.23976517,36.84210587,66.08187103,608.2166748,13.33333302,22.77777863,23.33333397,40.55555725,63.88888931,605.6067505,21.34831429,25.28089905,24.15730286,29.21348381,53.37078476,PK-6,"60-02 60 LANE, QUEENS NY 11378",40.716296,-73.904463,0.715,0.585
24Q229,P.S. 229 Emanuel Kaplan,1,0,0,1,Elementary (K-5),1469,0,0,0,Q229,20,Q229,1434,1026,11,80,8429054,20727.01,91,100,100,100,601.9063721,19.57446861,27.65957451,24.2553196,28.51063919,52.76595688,606.8636475,14.54545498,21.36363602,24.09090996,40,64.09091187,608.0195313,15.60975647,25.85365868,27.80487823,30.73170662,58.53658676,PK-5,"67-25 51 ROAD, QUEENS NY 11377",40.734682,-73.897108,0.718,0.579
24Q305,Learners and Leaders,2,0,0,2,Elementary (K-5),614,0,0,0,Q245,100,Q305,581,508,21.5,30,3725831,24334.38,72,100,100,100,603.1369629,9.589040756,24.65753365,52.05479431,13.69863033,65.7534256,602.9342041,10.52631569,28.94736862,40.78947449,19.7368412,60.5263176,602.446167,15.38461494,43.07692337,24.61538506,16.92307663,41.53845978,PK-5,"378 SENECA AVENUE, QUEENS NY 11385",40.706837,-73.91499,0.875,0.784
25Q021,P.S. 021 Edward Hart,6,0,0,6,Elementary (K-5),1425,0,0,0,Q021,10,Q021,1338,1052,11,76,8206946,20318.18,97,93,100,100,608.3423462,13.06306267,16.66666603,30.63063049,39.63964081,70.2702713,609.34375,9.821428299,23.6607151,29.4642849,37.05356979,66.51786041,611.7374878,12.5,21.66666603,28.75,37.08333206,65.83333588,PK-5,"147-36 26 AVENUE, QUEENS NY 11354",40.774134,-73.818581,0.787,0.658
25Q022,P.S. 022 Thomas Jefferson,4,0,0,4,Elementary (K-5),921,0,0,0,Q022,20,Q022,885,808,9,59,5812159,21234.92,86,,,,610.8827515,4.827586174,17.93103409,37.24137878,40,77.24137878,616.6796875,4.6875,9.375,24.21875,61.71875,85.9375,608.5231934,15.23178768,23.17880821,29.80132484,31.78808022,61.58940506,PK-5,"153-33 SANFORD AVENUE, QUEENS NY 11355",40.761744,-73.811373,0.911,0.782
25Q024,P.S. 024 Andrew Jackson,6,0,0,6,Elementary (K-5),992,0,0,0,Q024,50,Q024,992,694,21.1,44,5824329,20884.32,95,88,88,88,608.9880981,10.11904716,12.5,38.09523773,39.2857132,77.38095093,610.0858765,5.555555344,17.67676735,38.38383865,38.38383865,76.76767731,618.3599854,7.5,11,24,57.5,81.5,PK-5,"141-11 HOLLY AVENUE, QUEENS NY 11355",40.751972,-73.8181,0.722,0.739
25Q032,P.S. 032 State Street,4,0,0,4,Elementary (K-5),980,0,0,0,Q032,20,Q032,947,641,11,50.7,5824391,20057.43,98,,,,615.3076782,6.410256386,16.66666603,19.23077011,57.69230652,76.92308044,611.7014771,9.70149231,16.41790962,17.91044807,55.97014999,73.88059998,612.060791,10.81081104,18.91891861,28.37837791,41.89189148,70.2702713,PK-5,"171-11 35 AVENUE, QUEENS NY 11358",40.765459,-73.794323,0.683,0.578
25Q079,P.S. 079 Francis Lewis,5,0,0,5,Elementary (K-5),1136,0,0,0,Q079,50,Q079,1100,589,12,49,5488672,18425.65,95,100,86,100,612.2260132,7.344632626,19.77401161,24.85875702,48.02259827,72.88135529,612.9408569,7.692307472,15.97633171,25.44378662,50.88757324,76.33135986,610.4772949,22.72727203,15.909091,19.31818199,42.04545593,61.36363602,PK-5,"147-27 15 DRIVE, QUEENS NY 11357",40.786201,-73.817338,0.537,0.417
25Q120,P.S. 120 Queens,4,0,0,4,Elementary (K-5),1034,0,0,0,Q120,50,Q120,980,739,11.2,52,6062707,20768.85,95,100,100,100,608.6040039,8.724832535,22.81879234,32.88590622,35.5704689,68.45637512,603.6242676,11.51515198,28.48484802,32.72727203,27.27272797,60,610.2999878,14.44444466,16.11111069,31.11111069,38.33333206,69.44444275,PK-5,"58-01 136 STREET, QUEENS NY 11355",40.745215,-73.828674,0.767,0.786
25Q129,P.S. 129 Patricia Larkin,3,0,0,3,Elementary (K-5),1094,0,0,0,Q129,10,Q129,1094,852,14.7,61.5,6762328,21341.84,75,,,,614.3636475,9.090909004,7.954545498,30.68181801,52.27272797,82.95454407,610.7150879,6.703910828,24.5810051,24.5810051,44.13407898,68.71508026,607.2415771,15.73033714,24.15730286,32.58427048,27.52808952,60.11235809,K-5,"128-02 7 AVENUE, QUEENS NY 11356",40.789926,-73.839505,0.782,0.642
25Q163,P.S. 163 Flushing Heights,5,0,0,5,Elementary (K-5),804,0,0,0,Q163,10,Q163,734,595,21,35,4440494,20647.84,86,83,100,100,609.6699219,6.796116352,20.38834953,29.12621307,43.68931961,72.8155365,610.7844849,14.65517235,10.34482765,29.3103447,45.6896553,75,617.1604004,7.547169685,19.81132126,20.75471687,51.88679123,72.64151001,PK-5,"159-01 59 AVENUE, QUEENS NY 11365",40.741107,-73.808765,0.808,0.69
25Q164,P.S. 164 Queens Valley,6,0,0,6,K-8,693,2,0,0.002886003,Q164,50,Q164,660,491,5,49,4891665,22059.02,100,92,93,93,600,12.16216183,29.72973061,40.54053879,17.56756783,58.10810852,599.65625,18.75,31.25,34.375,15.625,50,605.7358398,22.64151001,20.75471687,26.41509438,30.18867874,56.60377502,PK-8,"138-01 77 AVENUE, QUEENS NY 11367",40.721514,-73.823569,0.74,0.557
25Q165,P.S. 165 Edith K. Bergtraum,6,0,0,6,Elementary (K-5),767,0,0,0,Q165,20,Q165,724,524,10.5,78.7,7499101,30293.37,98,83,83,,605.8125,21.875,15.625,23.95833397,38.54166794,62.5,611.93396,14.15094376,14.15094376,21.69811249,50,71.69811249,611.3511353,19.84732819,18.32061005,15.26717567,46.56488419,61.83206177,PK-5,"70-35 150 STREET, QUEENS NY 11367",40.729746,-73.816966,0.73,0.634
25Q169,P.S. 169 Bay Terrace,6,0,0,6,Elementary (K-5),445,0,0,0,Q169,50,Q169,409,138,5,28,2649353,23018.67,100,,,,610.9310303,6.896551609,10.34482765,43.10344696,39.65517426,82.75862122,612.3529663,8.823529243,11.76470566,27.94117737,51.47058868,79.41176605,613.4615479,6.153846264,20,30.76922989,43.07692337,73.84615326,PK-5,"18-25 212 STREET, QUEENS NY 11360",40.782331,-73.77843,0.342,0.282
25Q193,P.S. 193 Alfred J. Kennedy,5,0,0,5,Elementary (K-5),587,0,0,0,Q193,10,Q193,532,205,10.7,31,3345368,20558.68,95,100,100,,608.236084,8.333333015,16.66666603,43.05555725,31.94444466,75,617.2727051,3.409090996,18.18181801,19.31818199,59.09090805,78.40908813,620.6315918,5.263157845,15.78947353,15.78947353,63.15789413,78.94736481,PK-5,"152-20 11 AVENUE, QUEENS NY 11357",40.792053,-73.808987,0.383,0.282
25Q201,P.S. 201 The Discovery School for Inquiry and Rese,6,0,0,6,Elementary (K-5),482,0,0,0,Q201,50,,,,,,,,78,,,,596.3400269,32,24,28,16,44,592.3582153,38.80596924,28.35820961,20.89552307,11.94029808,32.83581924,594.0922852,44.61538315,21.53846169,24.61538506,9.230769157,33.84615326,PK-5,"65-11 155 STREET, QUEENS NY 11367",40.736541,-73.813011,0.743,0.779
25Q214,P.S. 214 Cadwallader Colden,6,0,0,6,Elementary (K-5),529,0,0,0,Q214,100,Q214,495,395,7.5,30,2942116,22627.38,89,100,100,100,613.2820435,6.410256386,16.66666603,26.92307663,50,76.92308044,610.0701904,12.28070164,18.42105293,24.56140327,44.73684311,69.29824829,617.0985718,13.38028145,9.859154701,21.83098602,54.92957687,76.76056671,PK-5,"31-15 140 STREET, QUEENS NY 11354",40.770215,-73.827606,0.796,0.721
25Q242,P.S. 242 Leonard P. Stavisky Early Childhood Schoo,2,0,0,2,Elementary (K-5),392,0,0,0,Q242,100,,,,,,,,91,,,,614.8666382,1.666666627,10,31.66666603,56.66666794,88.33333588,,,,,,,,,,,,,PK-3,"29-66 137 STREET, QUEENS NY 11354",40.769752,-73.832005,0.651,0.607
25Q499,"The Queens College School for Math, Science and Te",5,0,0,5,K-8,506,2,0,0.003952569,Q499,50,,,,,,,,55,,,,616.1400146,0,12,38,50,88,615.3599854,6,12,30,52,82,610.4561157,17.54385948,22.80701828,19.29824638,40.35087585,59.64912415,PK-8,"148-20 REEVES AVENUE, QUEENS NY 11367",40.738599,-73.820821,0.504,0.404
26Q026,P.S. 026 Rufus King,5,0,0,5,Elementary (K-5),709,0,0,0,Q026,10,Q026,679,463,8,39.7,4063274,20997.03,87,100,100,100,608.4766235,15.88785076,10.28037357,29.90654182,43.92523193,73.83177948,612.6226196,4.716980934,23.58490562,26.41509438,45.28302002,71.69811249,609,13.84615421,20.76922989,30.76922989,34.61538315,65.38461304,PK-5,"195-02 69 AVENUE, QUEENS NY 11365",40.735935,-73.777607,0.687,0.569
26Q031,P.S. 031 Bayside,6,0,0,6,Elementary (K-5),551,0,0,0,Q031,50,Q031,521,297,5,35,3617830,21449.5,68,,,,617.9758911,4.819277287,10.8433733,31.32530212,53.01204681,84.33734894,608.4109497,9.589040756,30.13698578,17.80821991,42.46575165,60.27397156,612.1685181,17.97752762,17.97752762,22.47191048,41.57303238,64.04494476,PK-5,"211-45 46 ROAD, QUEENS NY 11361",40.757701,-73.768994,0.575,0.457
26Q041,P.S. 041 Crocheron,6,0,0,6,Elementary (K-5),486,0,0,0,Q041,100,Q041,486,190,4.5,32,2990409,24543.38,91,,,,618.3239136,0,7.042253494,36.61971664,56.33802795,92.95774841,619.652771,4.166666508,5.555555344,25,65.27777863,90.27777863,618.3684082,7.368421078,6.3157897,29.47368431,56.84210587,86.31578827,K-5,"214-43 35 AVENUE, QUEENS NY 11361",40.770155,-73.771225,0.399,0.335
26Q094,P.S. 094 David D. Porter,2,0,0,2,Elementary (K-5),328,0,0,0,Q094,10,Q094,328,163,4,21,2173116,23390.91,80,100,86,100,613.3275757,0,10.34482765,43.10344696,46.55172348,89.65517426,615.875,2.5,10,27.5,60,87.5,620.2373047,5.084745884,16.94915199,23.72881317,54.23728943,77.9661026,K-5,"41-77 LITTLE NECK PARKWAY, QUEENS NY 11363",40.771258,-73.738703,0.5,0.419
26Q098,P.S. 098 The Douglaston School,6,0,0,6,Elementary (K-5),289,0,0,0,Q098,10,Q098,272,60,4.5,18,2004663,23371.14,100,,,,620.6286011,0,5.714285851,22.8571434,71.42857361,94.2857132,616.1764526,0,17.64705849,26.47058868,55.88235474,82.35294342,614.2727051,6.818181992,25,22.72727203,45.45454407,68.1818161,PK-5,"40-20 235 STREET, QUEENS NY 11363",40.768906,-73.749998,0.221,0.207
26Q115,The James J. Ambrose School,6,0,0,6,Elementary (K-5),753,0,1,0,Q115,10,Q115,699,295,3.9,40,4012340,19286.27,74,,,,615.4091187,6.363636494,11.81818199,27.27272797,54.54545593,81.8181839,618.0357056,3.571428537,11.60714245,24.1071434,60.7142868,84.82142639,617.6333618,8.333333015,13.33333302,16.66666603,61.66666794,78.33333588,PK-5,"80-51 261 STREET, QUEENS NY 11004",40.744201,-73.709404,0.444,0.384
26Q133,P.S. 133 Queens,4,0,0,4,Elementary (K-5),553,0,0,0,Q133,20,Q133,505,313,7,35,3799756,22353.34,65,,,,614.5425415,4.255319118,10.63829803,30.85106468,54.25531769,85.10638428,608.5625,10.9375,21.875,28.125,39.0625,67.1875,611.4117432,8.823529243,26.47058868,26.47058868,38.23529434,64.70587921,PK-5,"248-05 86 AVENUE, QUEENS NY 11426",40.732458,-73.717819,0.617,0.435
26Q159,P.S. 159,6,0,0,6,Elementary (K-5),678,0,0,0,Q159,10,Q159,634,325,12,34,3885728,20344.25,77,,,,613.1442261,5.769230843,11.53846169,37.5,45.19230652,82.69230652,619.7264404,4.716980934,11.320755,20.75471687,63.20754623,83.96226501,612.5599976,7.199999809,22.39999962,27.20000076,43.20000076,70.40000153,PK-5,"205-01 33 AVENUE, QUEENS NY 11361",40.770108,-73.783973,0.51,0.416
26Q173,P.S. 173 Fresh Meadows,4,0,0,4,Elementary (K-5),948,0,1,0,Q173,50,Q173,912,529,8.4,50,5230941,19393.55,98,100,100,100,613.9361572,8.510638237,9.929078102,25.53191566,56.0283699,81.56028748,613.7866821,4,16.66666603,24,55.33333206,79.33333588,613.7245483,12.57485008,19.76047897,19.16167641,48.50299454,67.66467285,PK-5,"174-10 67 AVENUE, QUEENS NY 11365",40.734097,-73.795651,0.586,0.445
26Q178,P.S./ IS 178 Holliswood,7,0,0,7,K-8,566,2,0,0.003533569,Q178,50,Q178,533,197,13.2,23,3163178,19688.1,87,,,,602.6607056,5.357142925,35.7142868,44.6428566,14.28571415,58.92856979,601.2758789,12.06896591,39.65517426,25.86206818,22.41379356,48.27586365,604.4127197,19.04761887,34.92063522,19.04761887,26.98412704,46.03174591,PK-8,"189-10 RADNOR ROAD, QUEENS NY 11423",40.724061,-73.777314,0.383,0.332
26Q186,P.S. 186 Castlewood,6,0,0,6,Elementary (K-5),383,0,0,0,Q186,50,Q186,353,125,7.5,54,5072056,39442.19,90,,,,604.7435913,10.2564106,17.94871712,46.15384674,25.64102554,71.79486847,607.0169678,5.084745884,27.11864471,45.76271057,22.0338974,67.79660797,610.3269043,11.53846169,21.15384674,28.84615326,38.46154022,67.30769348,PK-5,"252-12 72 AVENUE, QUEENS NY 11426",40.749556,-73.721594,0.363,0.291
26Q188,P.S. 188 Kingsbury,6,0,0,6,Elementary (K-5),734,0,0,0,Q188,10,Q188,698,183,5,37,3629726,17824.63,74,,,,623.8190308,0,6.666666508,23.80952454,69.52381134,93.33333588,629.871582,1.834862351,5.504587173,6.422018528,86.23853302,92.66055298,623.6017456,4.424778938,7.964601994,19.46902657,68.14159393,87.61061859,PK-5,"218-12 HARTLAND AVENUE, QUEENS NY 11364",40.736063,-73.753985,0.264,0.226
26Q203,P.S. 203 Oakland Gardens,4,0,0,4,Elementary (K-5),938,0,0,0,Q203,10,Q203,876,397,13.2,46,4858864,19553.73,100,100,100,100,621.8598633,2.547770739,3.821655989,21.01910782,72.61146545,93.63056946,624.340271,1.388888836,4.166666508,15.97222233,78.47222137,94.44444275,623.1911011,4.458598614,9.554140091,22.29299355,63.69426727,85.98725891,PK-5,"53-11 SPRINGFIELD BOULEVARD, QUEENS NY 11364",40.753606,-73.759822,0.45,0.325
26Q205,P.S. 205 Alexander Graham Bell,6,0,0,6,Elementary (K-5),325,0,0,0,Q205,10,Q205,292,80,3.7,19,2060057,23648.85,100,80,80,100,611.8163452,2.040816307,16.32653046,42.8571434,38.77550888,81.63265228,614.8444214,2.222222328,11.11111069,26.66666603,60,86.66666412,618.7647095,3.921568632,13.72549057,29.41176414,52.94117737,82.35294342,PK-5,"75-25 BELL BOULEVARD, QUEENS NY 11364",40.738008,-73.756374,0.283,0.233
26Q213,P.S. 213 The Carl Ullman School,6,0,0,6,Elementary (K-5),467,0,0,0,Q213,10,Q213,395,219,3,29,2930103,23081.22,76,,,,607.8197021,8.196721077,18.03278732,40.98360825,32.78688431,73.77049255,612.6792603,5.660377502,20.75471687,22.64151001,50.94339752,73.58490753,610.28125,18.75,21.875,21.875,37.5,59.375,PK-5,"231-02 67 AVENUE, QUEENS NY 11364",40.747457,-73.74539,0.563,0.493
26Q221,P.S. 221 The North Hills School,6,0,0,6,Elementary (K-5),628,0,0,0,Q221,10,Q221,610,242,4.2,36,3518351,20324.4,100,100,,,611.1484985,1.980198026,14.85148525,40.59405899,42.5742569,83.1683197,613.5,7.954545498,17.04545403,19.31818199,55.68181992,75,616.2427368,6.796116352,14.56310654,31.06796074,47.57281494,78.64077759,PK-5,"57-40 MARATHON PARKWAY, QUEENS NY 11362",40.758808,-73.731518,0.411,0.267
26Q266,P.S./I.S. 266,8,0,2,6,K-8,649,4,0,0.006163328,Q266,10,Q266,631,336,4,48,4574351,22836.46,94,100,100,100,599.9615479,13.46153831,32.69230652,40.38461685,13.46153831,53.84615326,602.2608643,13.04347801,36.231884,31.884058,18.84057999,50.72463608,611.7758789,3.448275805,29.3103447,25.86206818,41.37931061,67.24137878,PK-8,"74-10 COMMONWEALTH BOULEVARD, QUEENS NY 11426",40.746128,-73.728415,0.538,0.358
27Q047,P.S. 047 Chris Galas,7,0,0,7,K-8,216,1,0,0.00462963,Q047,10,Q047,201,70,6.2,18,2258963,33200.19,100,,,,599.5999756,6.666666508,43.33333206,43.33333206,6.666666508,50,612.5,0,19.23077011,38.46154022,42.30769348,80.7692337,600.0322876,29.03225899,16.12903214,35.48387146,19.35483932,54.83871078,3K-8,"9 POWER ROAD, QUEENS NY 11693",40.606476,-73.821089,0.352,0.382
27Q060,P.S. 060 Woodhaven,6,0,0,6,Elementary (K-5),1176,0,0,0,Q060,50,Q060,1104,972,12,68,7431279,21209.77,80,100,100,100,606.7963257,15.43209839,15.43209839,31.48148155,37.65431976,69.13580322,606.9371948,9.947644234,25.13088989,33.50785446,31.41361237,64.92146301,612.0810547,19.36936951,13.51351357,21.17117119,45.94594574,67.11711884,3K-5,"91-02 88 AVENUE, QUEENS NY 11421",40.691467,-73.852792,0.884,0.77
27Q062,P. S. 62 - Chester Park School,6,0,0,6,Elementary (K-5),944,0,0,0,Q062,10,Q062,908,631,13.2,49,5560027,20154.49,88,100,100,100,604.9000244,16.15384674,26.15384674,24.61538506,33.07692337,57.69230652,603.6541138,15.78947353,28.5714283,23.30827141,32.33082581,55.63909912,601.4311523,24.5508976,29.9401207,28.74251556,16.76646614,45.50898361,PK-5,"97-25 108 STREET, QUEENS NY 11419",40.688359,-73.835567,0.721,0.737
27Q063,P.S. 063 Old South,6,0,0,6,Elementary (K-5),1227,0,0,0,Q063,20,Q063,1173,1017,12,77,7470714,22208.09,77,100,100,100,600.5026245,20.41884804,26.17801094,31.41361237,21.98952866,53.40314102,603.305542,16.66666603,28.70370293,25.4629631,29.16666603,54.62963104,603.9234619,21.05263138,29.66507149,24.88038254,24.4019146,49.28229523,3K-5,"90-15 SUTTER AVENUE, QUEENS NY 11417",40.676978,-73.846796,0.866,0.706
27Q066,P.S. 066 Jacqueline Kennedy Onassis,6,0,0,6,Elementary (K-5),494,0,0,0,Q066,10,Q066,458,400,9,32,3309158,24610.76,95,100,91,91,594.666687,25.33333397,36,25.33333397,13.33333302,38.66666794,611,5.063291073,25.31645584,27.84810066,41.77215195,69.62025452,602.5750122,21.25,33.75,30,15,45,PK-5,"85-11 102 STREET, QUEENS NY 11418",40.697941,-73.846135,0.87,0.678
27Q090,P.S. 090 Horace Mann,4,0,0,4,Elementary (K-5),850,0,0,0,Q090,10,Q090,796,720,9,48,5290152,21926.81,78,100,86,86,601.8059692,14.92537308,27.61194038,34.3283577,23.13432884,57.46268845,601.2214355,17.1428566,35,25.7142849,22.1428566,47.8571434,599.2960205,23.20000076,41.59999847,24,11.19999981,35.20000076,PK-5,"86-50 109 STREET, QUEENS NY 11418",40.696653,-73.839517,0.912,0.754
27Q097,P.S. 097 Forest Park,6,0,0,6,Elementary (K-5),720,0,0,0,Q097,20,Q097,684,603,8,43,4683075,21990.06,77,,,,602.5425415,18.0851059,19.14893532,32.97872162,29.78723335,62.76595688,600.1186523,22.0338974,25.42372894,24.57627106,27.9661026,52.54237366,597.267334,29.7029705,33.66336823,29.7029705,6.93069315,36.63366318,PK-5,"85-52 85 STREET, QUEENS NY 11421",40.694232,-73.860031,0.883,0.745
27Q100,P.S. 100 Glen Morris,5,0,0,5,Elementary (K-5),957,0,0,0,Q100,50,Q100,893,568,4,62,6242558,21898.87,67,,,,607.2750244,5.833333492,28.33333397,33.33333206,32.5,65.83333588,609.1879272,12.08053684,26.84563828,22.81879234,38.2550354,61.07382584,605.539978,12.66666698,36.66666794,28,22.66666603,50.66666794,3K-5,"111-11 118 STREET, QUEENS NY 11420",40.679694,-73.821545,0.651,0.673
27Q105,P.S. 105 The Bay School,1,0,0,1,K-8,815,2,0,0.002453988,Q105,50,Q105,779,688,11,60.5,6330337,24722.76,86,88,75,75,584.21698,50,39.62264252,5.660377502,4.716980934,10.37735844,585.3604736,56.97674561,31.3953495,9.302325249,2.325581312,11.6279068,587.7628784,55.67010498,27.83505249,13.40206146,3.092783451,16.49484444,PK-8,"420 BEACH 51 STREET, QUEENS NY 11691",40.595911,-73.780961,0.888,0.937
27Q106,Lighthouse Elementary School,3,0,0,3,Elementary (K-5),211,0,0,0,Q106,20,Q106,197,185,13,10,1578676,27906.84,68,,,,585.4375,47.91666794,31.25,18.75,2.083333254,20.83333397,593.111084,40.74074173,22.22222137,22.22222137,14.81481457,37.0370369,581.2000122,66.66666412,23.33333397,10,0,10,PK-5,"180 BEACH 35 STREET, QUEENS NY 11691",40.594738,-73.766846,0.943,0.934
27Q124,P.S. 124 Osmond A Church,5,0,0,5,K-8,1229,4,0,0.003254679,Q124,20,Q124,1229,770,8,69.7,6585492,19143.42,85,91,91,100,601.4329834,17.525774,24.74226761,34.02061844,23.71133995,57.7319603,598.434082,23.2558136,32.5581398,25.5813961,18.6046505,44.1860466,598.678833,32.11678696,23.35766411,24.81751823,19.70802879,44.52554703,K-8,"129-15 150 AVENUE, QUEENS NY 11420",40.665669,-73.811266,0.641,0.687
27Q146,P.S. 146 Howard Beach,8,0,0,8,K-8,678,1,0,0.001474926,Q146,20,Q146,662,318,3,47,4276031,23388.07,100,100,100,100,612.189209,5.405405521,16.21621704,28.37837791,50,78.37837982,606.1097412,7.317073345,31.70731735,30.48780441,30.48780441,60.97560883,601.1641846,23.88059616,29.85074615,31.3432827,14.92537308,46.26865768,3K-8,"98-01 159 AVENUE, QUEENS NY 11414",40.660531,-73.834896,0.475,0.32
27Q207,P.S. 207 Rockwood Park,3,0,0,3,K-8,680,2,0,0.002941176,Q207,20,Q207,628,216,4.7,62.7,5747841,27211.07,94,100,100,100,601.3013916,15.06849289,23.28767204,41.09589005,20.54794502,61.64383698,606.6087036,11.594203,20.28985596,33.33333206,34.78260803,68.11594391,604.5606079,15.15151501,42.42424393,16.66666603,25.75757599,42.42424393,3K-8,"159-15 88 STREET, QUEENS NY 11414",40.657736,-73.843881,0.356,0.178
27Q232,P.S. 232 Lindenwood,3,0,3,0,K-8,970,2,0,0.002061856,Q232,20,Q232,970,600,6.7,59.7,5831865,20722.75,86,100,100,100,599.8737793,21.35922241,17.47572899,43.68931961,17.47572899,61.16504669,601.0280151,21.495327,31.77570152,28.03738403,18.69158936,46.72897339,604.7734375,23.4375,19.53125,29.6875,27.34375,57.03125,3K-8,"153-23 83 STREET, QUEENS NY 11414",40.665408,-73.850622,0.627,0.499
27Q253,P.S. 253,6,0,0,6,Elementary (K-5),562,0,0,0,Q253,20,K253,885,736,17.7,50,5585793,22161.87,80,,,,596.2298584,24.13793182,32.18390656,28.73563194,14.94252872,43.67816162,591.5888672,40,37.77777863,13.33333302,8.888889313,22.22222137,594.9354858,40.86021423,18.27956963,30.10752678,10.75268841,40.86021423,3K-5,"1307 CENTRAL AVENUE, QUEENS NY 11691",40.607247,-73.748799,0.95,0.874
27Q253,P.S. 253,6,0,0,6,Elementary (K-5),562,0,0,0,Q253,20,Q253,533,518,7.5,38,3969764,25288.25,80,,,,596.2298584,24.13793182,32.18390656,28.73563194,14.94252872,43.67816162,591.5888672,40,37.77777863,13.33333302,8.888889313,22.22222137,594.9354858,40.86021423,18.27956963,30.10752678,10.75268841,40.86021423,3K-5,"1307 CENTRAL AVENUE, QUEENS NY 11691",40.607247,-73.748799,0.95,0.874
27Q254,P.S. 254 - The Rosa Parks School,6,0,0,6,Elementary (K-5),648,0,0,0,Q254,10,Q254,613,495,4,44,3823674,21681.78,96,,,,599.1368408,18.94736862,26.31579018,40,14.73684216,54.73684311,601.177063,19.79166603,28.125,30.20833397,21.875,52.08333206,601.6146851,22.93577957,35.77981567,25.68807411,15.59633064,41.28440475,PK-5,"84-40 101 STREET, QUEENS NY 11418",40.6972,-73.847886,0.815,0.694
27Q316,Queens Explorers Elementary School,4,0,0,4,Elementary (K-5),386,0,0,0,Q316,10,Q316,278,213,16,17,2863366,22945.64,100,,,,606.333313,6.349206448,22.22222137,47.61904907,23.80952454,71.42857361,,,,,,,,,,,,,3K-4,"90-07 101ST AVENUE, QUEENS NY 11416",40.683112,-73.850123,0.764,0.625
27Q317,Waterside Children's Studio School,5,0,0,5,Elementary (K-5),503,0,0,0,Q225,100,Q317,452,330,2,39,3550045,23847.24,98,100,100,100,591.4743652,41.0256424,25.64102554,25.64102554,7.692307472,33.33333206,600.9041138,21.91780853,26.02739716,27.39726067,24.65753365,52.05479431,594.4366455,46.47887421,25.35211182,15.49295807,12.67605591,28.16901398,PK-5,"190 BEACH 110 STREET, ROCKAWAY PARK NY 11694",40.580907,-73.83109,0.74,0.668
28Q040,P.S. 040 Samuel Huntington,6,0,0,6,Elementary (K-5),458,0,0,0,Q040,10,Q040,422,394,7,30,2841376,25830.94,100,100,100,100,600.3272705,23.63636398,25.45454597,30.90909004,20,50.90909195,593.4534912,36.0465126,31.3953495,22.0930233,10.4651165,32.5581398,591.5588379,43.13725662,29.41176414,19.6078434,7.843137264,27.45098114,PK-5,"109-20 UNION HALL STREET, QUEENS NY 11433",40.693559,-73.790975,0.939,0.864
28Q048,P.S. 048 William Wordsworth,1,0,0,1,Elementary (K-5),601,0,0,0,Q276,10,Q048,549,499,7,41,3899852,23181.9,89,67,83,67,603.8706055,17.64705849,23.52941132,31.76470566,27.05882263,58.82352829,598.8461304,20.87912178,34.06593323,29.67033005,15.38461494,45.0549469,593.0109863,42.8571434,25.27472496,17.58241844,14.28571415,31.86813164,PK-5,"108-29 155 STREET, QUEENS NY 11433",40.693736,-73.796358,0.908,0.849
28Q086,P.S. Q086,3,0,0,3,Elementary (K-5),944,0,0,0,Q086,20,Q086,909,714,9,62.5,5775196,21894.79,99,60,60,60,601.5244141,20.12195206,17.68292618,40.85365677,21.34146309,62.19512177,598.7527466,26.37362671,26.37362671,28.02197838,19.23077011,47.25274658,598.8969727,33.33333206,24.24242401,21.21212196,21.21212196,42.42424393,PK-5,"87-41 PARSONS BOULEVARD, QUEENS NY 11432",40.709461,-73.803001,0.798,0.831
28Q101,P.S. 101 School in the Gardens,4,0,0,4,Elementary (K-5),654,0,0,0,Q101,20,Q101,636,120,14,28.5,3702916,19625.95,98,,,,617.6799927,3,9,24,64,88,615.6860352,5.8139534,8.13953495,24.4186039,61.6279068,86.04650879,612.6973877,10.52631569,25,22.36842155,42.10526276,64.47368622,PK-6,"2 RUSSELL PLACE, QUEENS NY 11375",40.715543,-73.8434,0.188,0.155
28Q121,P.S. 121 Queens,4,0,0,4,Elementary (K-5),928,0,0,0,Q121,50,Q121,892,732,17,43.7,4802307,19681.36,98,100,100,100,605.7639771,13.66459656,19.87577629,31.05590057,35.40372849,66.45962524,608.96875,11.875,23.75,23.125,41.25,64.375,605.6866455,18,24.66666603,30,27.33333397,57.33333206,PK-5,"126-10 109 AVENUE, QUEENS NY 11420",40.683585,-73.81533,0.828,0.612
28Q139,P.S. 139 Rego Park,6,0,0,6,Elementary (K-5),750,0,0,0,Q139,20,Q139,750,470,7,44,4342170,20108.28,98,,,,603.7913208,20.86956596,14.78260899,33.91304398,30.43478203,64.3478241,607.2734985,17.09401703,19.6581192,24.78632545,38.46154022,63.24786377,607.9824829,19.29824638,25.43859673,21.05263138,34.21052551,55.26315689,K-5,"93-06 63 DRIVE, QUEENS NY 11374",40.728012,-73.862561,0.632,0.564
28Q161,P.S. 161 Arthur Ashe School,6,0,0,6,Elementary (K-5),708,0,0,0,Q161,10,Q161,661,554,3,49,4737574,22261.38,96,,,,604.8048706,9.756097794,23.1707325,43.90243912,23.1707325,67.07317352,611.6470337,8.40336132,20.16806793,27.73109245,43.69747925,71.42857361,609.3636475,10,23.63636398,38.18181992,28.18181801,66.36363983,PK-5,"101-33 124 STREET, QUEENS NY 11419",40.690439,-73.82108,0.847,0.729
28Q196,P.S. 196 Grand Central Parkway,6,0,0,6,Elementary (K-5),993,0,0,0,Q196,10,Q196,975,235,7.2,54,5199436,18448.72,92,100,100,100,621.2142944,0.793650806,2.380952358,27.77777863,69.04762268,96.82539368,632.1810303,0,2.586206913,5.172413826,92.24137878,97.41379547,624.262085,2.068965435,8.965517044,21.37931061,67.58620453,88.96551514,PK-5,"71-25 113 STREET, QUEENS NY 11375",40.722792,-73.837379,0.251,0.201
28Q349,The Queens School for Leadership and Excellence,2,0,0,2,Elementary (K-5),318,0,0,0,Q314,50,Q349,283,248,17,8,2302561,20195.98,73,,,,,,,,,,,,,,,,,,,,,,PK-3,"88-08 164TH STREET, QUEENS NY 11432",40.708698,-73.797981,0.887,0.789
28Q354,The Jermaine L. Green STEM Institute of Queens,6,0,0,6,Elementary (K-5),616,0,0,0,Q030,10,Q354,589,453,17,25,3329688,21684.55,84,86,86,86,590.4736938,39.4736824,30.2631588,21.05263138,9.210526466,30.2631588,594.7944946,26.02739716,36.98630142,27.39726067,9.589040756,36.98630142,588.4819336,60.24096298,31.32530212,8.433734894,0,8.433734894,PK-5,"126-10 BEDELL STREET, QUEENS NY 11434",40.679843,-73.774668,0.787,0.703
29Q037,Cynthia Jenkins School,4,0,0,4,Elementary (K-5),445,0,0,0,Q037,20,Q037,409,321,7,29,2971649,23597.55,74,100,83,100,591.7714233,35.7142868,28.5714283,27.1428566,8.571428299,35.7142868,590.8024902,40.74074173,32.09876633,20.98765373,6.172839642,27.16049385,585.5294189,52.94117737,29.41176414,14.70588207,2.941176414,17.64705849,PK-5,"179-37 137 AVENUE, QUEENS NY 11434",40.676201,-73.758778,0.8,0.732
29Q052,P.S. 052 Queens,6,0,0,6,Elementary (K-5),462,0,0,0,Q052,20,Q052,432,322,7,28,2987442,22775.91,100,86,86,86,587.0645142,53.22580719,17.74193573,22.58064461,6.451612949,29.03225899,587.0655518,49.18032837,29.50819588,14.75409794,6.557376862,21.31147575,588.0230103,60.91954041,18.39080429,16.09195328,4.597701073,20.6896553,PK-5,"178-37 146 TERRACE, QUEENS NY 11434",40.661427,-73.767161,0.747,0.767
29Q095,P.S. 095 Eastwood,6,0,0,6,Elementary (K-5),1490,0,0,0,Q095,20,Q095,1490,1102,8.2,85,8477329,20160.42,99,92,92,100,603.1989746,18.36734772,19.89795876,35.7142868,26.02040863,61.73469543,602.2451172,21.56862831,29.41176414,21.07843208,27.94117737,49.01960754,606.5540161,12.20657253,33.8028183,27.69952965,26.29108047,53.99061203,K-5,"179-01 90 AVENUE, QUEENS NY 11432",40.711295,-73.783283,0.754,0.779
29Q118,P.S. 118 Lorraine Hansberry,3,0,0,3,Elementary (K-5),448,0,0,0,Q118,20,Q118,412,293,4,34,3239027,24909.47,95,100,90,90,594.3485107,27.27272797,28.78787804,36.36363602,7.575757504,43.93939209,589.1605225,46.91358185,29.62962914,16.04938316,7.407407284,23.45679092,587.8729858,55.55555725,30.15872955,12.6984129,1.587301612,14.28571415,PK-5,"190-20 109 ROAD, QUEENS NY 11412",40.703182,-73.765237,0.748,0.74
29Q131,P.S. 131 Abigail Adams,6,0,0,6,Elementary (K-5),812,0,0,0,Q131,20,Q131,812,745,12.1,39,4447774,21143.44,100,,,,608.3358765,9.160305023,17.55725098,35.11450195,38.16793823,73.28244019,609.8851318,10.81081104,18.91891861,26.35135078,43.91891861,70.2702713,612.625,10.625,18.125,29.375,41.875,71.25,K-5,"170-45 84 AVENUE, QUEENS NY 11432",40.71715,-73.794061,0.919,0.713
29Q156,P.S. 156 Laurelton,3,0,0,3,Elementary (K-5),260,0,0,0,Q156,100,Q156,242,177,0,22,1879584,26838.74,96,,,,586.8444214,51.11111069,26.66666603,20,2.222222328,22.22222137,589.8857422,48.57143021,25.7142849,17.1428566,8.571428299,25.7142849,590.0213013,55.31914902,29.78723335,8.510638237,6.382978916,14.89361668,PK-5,"229-02 137 AVENUE, QUEENS NY 11413",40.672259,-73.743327,0.75,0.648
29Q181,P.S. 181 Brookfield,4,0,0,4,Elementary (K-5),326,0,0,0,Q181,10,Q181,307,225,3,32,2976619,27774.74,66,,,,592.039978,30,44,22,4,26,593.208313,35.41666794,27.08333397,33.33333206,4.166666508,37.5,590.1875,52.08333206,33.33333206,14.58333302,0,14.58333302,PK-5,"148-15 230 STREET, QUEENS NY 11413",40.655674,-73.752948,0.739,0.646
29Q195,P.S. 195 William Haberle,1,0,0,1,Elementary (K-5),564,0,0,0,Q195,10,Q195,510,431,0,40,3540695,23229.81,100,100,100,100,584.6351318,59.45946121,22.97297287,10.81081104,6.756756783,17.56756783,583.8375244,58.75,21.25,20,0,20,585.5543213,63.04347992,22.82608604,10.86956501,3.260869503,14.13043499,PK-5,"253-50 149 AVENUE, QUEENS NY 11422",40.652641,-73.735618,0.848,0.578
29Q268,P.S./I.S. 268,9,0,3,6,K-8,632,3,0,0.004746835,Q268,10,Q268,632,494,9,40,3990719,20515.01,56,,,,600.4262085,13.11475372,26.22950745,50.81967163,9.836065292,60.65573883,596.1470337,26.47058868,39.70588303,19.11764717,14.70588207,33.82352829,594.0975342,37.80487823,29.26829338,23.1707325,9.756097794,32.92683029,K-8,"92-07 175 STREET, QUEENS NY 11433",40.707648,-73.78521,0.791,0.717
29Q270,The Gordon Parks School,6,0,0,6,K-8,753,4,0,0.005312085,Q270,40,Q270,735,475,5,46,4439891,19626.71,90,92,92,83,600.7746582,15.49295807,28.16901398,42.25352097,14.08450699,56.33802795,594.013916,25,50,15.27777767,9.722222328,25,595.3294067,37.64706039,32.94117737,20,9.411765099,29.41176414,PK-8,"233-15 MERRICK BOULEVARD, QUEENS NY 11422",40.67507,-73.736232,0.681,0.426
29Q295,P.S./I.S. 295,5,0,0,5,K-8,496,3,0,0.006048387,Q263,10,Q295,478,372,8,33,3610612,23868.18,79,,,,606.3939209,3.030303001,21.21212196,51.51515198,24.24242401,75.75757599,603.666687,13.88888931,25,41.66666794,19.44444466,61.11111069,598.4489746,26.53061295,38.77550888,22.44898033,12.24489784,34.69387817,PK-8,"222-14 JAMAICA AVENUE, QUEENS NY 11428",40.720617,-73.731398,0.782,0.596
30Q002,P.S. 002 Alfred Zimberg,6,0,0,6,Elementary (K-5),568,0,0,0,Q002,50,Q002,568,416,4.2,35,3462451,23052.74,100,86,86,86,611.4285889,7.142857075,21.4285717,26.19047546,45.23809433,71.42857361,613.7288208,4.237287998,15.25423717,33.89830399,46.61016846,80.50847626,604.1020508,29.59183693,25.51020432,9.183673859,35.7142868,44.89796066,K-5,"75-10 21 AVENUE, QUEENS NY 11370",40.769798,-73.894108,0.734,0.615
30Q069,P.S. 069 Jackson Heights,1,0,0,1,Elementary (K-5),1033,0,0,0,Q069,10,Q069,973,602,3,62,5794317,20437.53,100,100,89,100,605.675415,13.08900547,24.08376884,32.46073151,30.36649132,62.82722473,603.9470825,21.1764698,24.11764717,22.35294151,32.35293961,54.70588303,608.605896,14.11764717,23.52941132,32.35293961,30,62.35293961,PK-5,"77-02 37 AVENUE, QUEENS NY 11372",40.748804,-73.888457,0.628,0.659
30Q078,P.S./I.S. 78Q,2,0,0,2,K-8,706,3,0,0.004249292,Q868,20,Q078,672,185,23,30,3987792,18518.9,69,,,,607.5116577,6.976744175,22.0930233,38.3720932,32.5581398,70.93022919,610.2857056,6.493506432,22.07792282,31.16883087,40.25973892,71.42857361,610.836731,12.24489784,18.36734772,34.69387817,34.69387817,69.38775635,PK-8,"48-09 CENTER BOULEVARD, QUEENS NY 11109",40.744368,-73.957177,0.275,0.25
30Q092,P.S. 092 Harry T. Stewart Sr.,6,0,0,6,Elementary (K-5),928,0,0,0,Q292,10,Q092,842,684,8,68,6541860,23107.62,78,86,100,100,595.442749,26.71755791,33.58778763,29.77099228,9.923664093,39.69465637,595.9848633,23.48484802,40.15151596,25.75757599,10.60606098,36.36363602,594.4354858,40.32258224,37.09677505,13.7096777,8.870967865,22.58064461,PK-5,"99-01 34 AVENUE, QUEENS NY 11368",40.755983,-73.868773,0.831,0.86
30Q112,P.S. 112 Dutch Kills,6,0,0,6,Elementary (K-5),485,0,0,0,Q112,100,Q112,431,360,1,35,2990880,23131.17,100,,,,597.6229248,24.59016418,29.50819588,27.86885262,18.03278732,45.90163803,601.3491821,19.04761887,31.74603081,20.63492012,28.5714283,49.20634842,596.1744385,39.53488541,29.069767,20.930233,10.4651165,31.3953495,PK-5,"25-05 37 AVENUE, QUEENS NY 11101",40.757293,-73.933562,0.833,0.87
30Q149,P.S. 149 Christa Mcauliffe,6,0,0,6,Elementary (K-5),1054,0,0,0,Q149,10,,,,,,,,100,71,83,100,600.5116577,19.069767,26.5116272,36.27906799,18.139534,54.4186058,594.65802,32.64248657,31.08808327,22.79792786,13.4715023,36.26942825,596.7884521,34.61538315,34.13461685,20.67307663,10.57692337,31.25,K-5,"93-11 34 AVENUE, QUEENS NY 11372",40.755759,-73.874505,0.78,0.799
30Q166,P.S. 166 Henry Gradstein,3,0,0,3,Elementary (K-5),1075,0,0,0,Q166,100,Q166,1039,715,1,64,5997970,20061.15,37,,,,603.8589478,16.66666603,21.79487228,32.05128098,29.4871788,61.53845978,609.4300537,9.326424599,20.20725441,31.60621834,38.86010361,70.46632385,610.005127,14.79591846,19.38775444,26.02040863,39.79591751,65.81632996,PK-5,"33-09 35 AVENUE, QUEENS NY 11106",40.757497,-73.926249,0.699,0.641
30Q212,P.S. 212,4,0,0,4,Elementary (K-5),784,0,0,0,Q212,10,X212,407,397,4,26,1912837,27297.33,71,,,,603.2870483,14.81481457,24.07407379,38.88888931,22.22222137,61.11111069,609.0465088,10.07751942,18.6046505,25.5813961,45.73643494,71.31783295,601.4224243,31.03448296,27.58620644,21.55172348,19.82758713,41.37931061,PK-5,"34-25 82 STREET, QUEENS NY 11372",40.753035,-73.884458,0.606,0.671
30Q212,P.S. 212,4,0,0,4,Elementary (K-5),784,0,0,0,Q212,10,Q212,746,436,5,49,4792572,23055.93,71,,,,603.2870483,14.81481457,24.07407379,38.88888931,22.22222137,61.11111069,609.0465088,10.07751942,18.6046505,25.5813961,45.73643494,71.31783295,601.4224243,31.03448296,27.58620644,21.55172348,19.82758713,41.37931061,PK-5,"34-25 82 STREET, QUEENS NY 11372",40.753035,-73.884458,0.606,0.671
30Q300,The 30th Avenue School (G&T Citywide),3,0,3,0,K-8,457,4,0,0.008752735,Q017,100,Q300,457,123,14,12,2401508,16555.6,100,86,86,100,630.5,0,0,8.928571701,91.07142639,100,628.309082,0,1.818181872,7.272727489,90.90908813,98.1818161,,,,,,,K-8,"28-37 29 STREET, QUEENS NY 11102",40.768034,-73.922544,0.276,0.298
31R004,P.S. 004 Maurice Wollin,6,0,0,6,Elementary (K-5),745,0,0,0,R004,20,R004,684,256,10,87.8,7551092,34485.35,78,100,89,100,600.8087158,17.39130402,26.08695602,33.04347992,23.47826004,56.52173996,604.6310425,16.5048542,26.21359253,20.38834953,36.89320374,57.28155518,608.2399902,16.79999924,16,30.39999962,36.79999924,67.19999695,PK-5,"200 NEDRA LANE, STATEN ISLAND NY 10312",40.552059,-74.195281,0.381,0.372
31R005,P.S. 005 Huguenot,6,0,0,6,Elementary (K-5),302,0,0,0,R005,100,R005,302,75,3.2,20,1989882,24332.12,100,,,,610.0922852,7.692307472,12.30769253,44.61538315,35.38461685,80,622.3823242,0,2.941176414,26.47058868,70.58823395,97.05882263,630.7567749,0,0,16.21621704,83.78378296,100,K-5,"348 DEISIUS STREET, STATEN ISLAND NY 10312",40.529389,-74.187276,0.248,0.224
31R011,P.S. 11 Thomas Dongan School,6,0,0,6,Elementary (K-5),314,0,0,0,R011,100,R011,281,207,3.9,23,2284807,24683.84,88,,,,604.3809814,19.04761887,16.66666603,40.47618866,23.80952454,64.2857132,598.604187,25,31.25,18.75,25,43.75,597.75,40.90909195,18.18181801,22.72727203,18.18181801,40.90909195,PK-5,"50 JEFFERSON STREET, STATEN ISLAND NY 10304",40.590887,-74.098252,0.745,0.676
31R013,P.S. 013 M. L. Lindemeyer,6,0,0,6,Elementary (K-5),881,0,0,0,R013,100,R013,863,564,11.9,53.7,5613491,23449.81,45,100,92,100,601.7272949,19.58041954,23.77622414,32.86713409,23.77622414,56.64335632,597.7985229,26.86567116,23.88059616,27.61194038,21.64179039,49.25373077,600.0384521,32.05128098,23.07692337,23.71794891,21.15384674,44.87179565,PK-5,"191 VERMONT AVENUE, STATEN ISLAND NY 10305",40.613322,-74.068963,0.663,0.691
31R018,P.S. 018 John G. Whittier,6,0,0,6,Elementary (K-5),573,0,0,0,R018,100,R018,537,484,3,51,4443506,27008.56,56,60,60,60,595.4815063,28.39506149,29.62962914,25.92592621,16.04938316,41.97530746,592.3200073,40,30.66666603,21.33333397,8,29.33333397,587.3289185,64.47368622,25,10.52631569,0,10.52631569,PK-5,"221 BROADWAY, STATEN ISLAND NY 10310",40.636521,-74.116817,0.916,0.935
31R019,P.S. 019 The Curtis School,3,0,0,3,Elementary (K-5),591,0,0,0,R019,20,R019,555,470,8,42.7,3806582,26387.34,94,,,,593.1797485,34.83145905,26.96629143,31.46067429,6.741572857,38.20224762,591.8046265,40.2298851,29.88505745,20.6896553,9.195402145,29.88505745,592.7809448,47.61904907,28.5714283,12.38095284,11.4285717,23.80952454,PK-5,"780 POST AVENUE, STATEN ISLAND NY 10310",40.630563,-74.126851,0.851,0.82
31R021,P.S. 21 Margaret Emery-Elm Park,4,0,0,4,Elementary (K-5),367,0,0,0,R021,50,R021,367,294,6,30.1,2974693,30121.14,80,88,88,88,591.666687,33.33333206,33.33333206,29.62962914,3.703703642,33.33333206,593.75,35.9375,29.6875,23.4375,10.9375,34.375,587.34375,56.25,26.5625,15.625,1.5625,17.1875,K-5,"168 HOOKER PLACE, STATEN ISLAND NY 10303",40.631165,-74.144599,0.812,0.849
31R022,P.S. 022 Graniteville,3,0,0,3,Elementary (K-5),983,0,0,0,R022,100,R022,965,847,6.1,64,6787978,25349.98,71,100,100,100,596.4758911,31.32530212,24.69879532,27.10843468,16.86746979,43.97590256,592.1519165,39.24050522,32.91139221,18.98734093,8.860759735,27.84810066,594.6623535,43.50649261,25.32467461,19.48052025,11.68831158,31.16883087,PK-5,"1860 FOREST AVENUE, STATEN ISLAND NY 10303",40.624847,-74.150544,0.881,0.789
31R023,P.S. 023 Richmondtown,6,0,0,6,Elementary (K-5),564,0,0,0,R023,100,R023,529,198,6,39.5,4026604,25059.61,80,,,,610.590332,8.433734894,21.6867466,18.07228851,51.80722809,69.8795166,605.7126465,17.24137878,17.24137878,32.18390656,33.33333206,65.51724243,614.0864258,1.234567881,20.98765373,34.56790161,43.20987701,77.77777863,PK-5,"30 NATICK STREET, STATEN ISLAND NY 10306",40.570765,-74.133216,0.372,0.295
31R032,P.S. 032 The Gifford School,6,0,0,6,Elementary (K-5),674,0,0,0,R032,10,R032,620,206,6.7,40.6,3885226,23055.03,93,100,100,100,605.7674561,10.4651165,25.5813961,36.0465126,27.9069767,63.9534874,606.2761841,6.666666508,35.23809433,25.7142849,32.38095093,58.09523773,607.15625,12.5,32.29166794,19.79166603,35.41666794,55.20833206,PK-5,"232 BARLOW AVENUE, STATEN ISLAND NY 10308",40.5579,-74.1554,0.329,0.305
31R036,P.S. 036 J. C. Drumgoole,6,0,0,6,Elementary (K-5),855,0,0,0,R036,100,R036,782,266,9,56.7,5630548,24680.97,45,,,,600.2131348,17.21311569,28.68852425,33.60655594,20.49180412,54.09836197,601.4736938,18.42105293,33.33333206,28.94736862,19.29824638,48.2456131,606.5753174,16.4383564,26.02739716,32.19178009,25.34246635,57.53424835,PK-5,"255 IONIA AVENUE, STATEN ISLAND NY 10312",40.543433,-74.182548,0.353,0.273
31R038,P.S. 038 George Cromwell,6,0,0,6,Elementary (K-5),376,0,0,0,R038,100,R038,340,238,8,23,2762625,27257.94,100,,,,597.1799927,20,28,42,10,52,600.6271362,22.0338974,32.20338821,18.64406776,27.11864471,45.76271057,596.4464111,35.7142868,25,25,14.28571415,39.2857132,PK-5,"421 LINCOLN AVENUE, STATEN ISLAND NY 10306",40.574799,-74.099409,0.705,0.575
31R041,The Stephanie A. Vierno School,6,0,0,6,Elementary (K-5),685,0,0,0,R041,100,R041,649,438,9.5,41.5,4296214,23241.08,79,100,100,100,599.7677002,19.19191933,25.25252533,42.42424393,13.13131332,55.55555725,602.5454712,18.939394,22.72727203,28.78787804,29.54545403,58.33333206,605.3195801,15.46391773,34.02061844,22.68041229,27.83505249,50.51546478,PK-5,"216 CLAWSON STREET, STATEN ISLAND NY 10306",40.573599,-74.108492,0.685,0.563
31R052,P.S. 052 John C. Thompson,6,0,0,6,Elementary (K-5),526,0,1,0,R052,100,R052,468,308,9.5,35,3993696,25639.59,95,,,,613.6875,6.25,10,35,48.75,83.75,604.0666504,13.33333302,29.33333397,33.33333206,24,57.33333206,603.3934326,21.31147575,24.59016418,29.50819588,24.59016418,54.09836197,PK-5,"450 BUEL AVENUE, STATEN ISLAND NY 10305",40.58255,-74.089012,0.656,0.514
31R053,The Barbara Esselborn School,4,0,0,4,Elementary (K-5),833,0,0,0,R053,20,R053,751,293,2.5,55,5231968,22885.74,95,75,75,71,611.1724243,12.06896591,7.758620739,31.89655113,48.27586365,80.17241669,611.9105835,9.756097794,20.32520294,21.95121956,47.96747971,69.91870117,606.0982056,20.5357151,23.2142849,28.5714283,27.6785717,56.25,PK-5,"330 DURANT AVENUE, STATEN ISLAND NY 10308",40.551926,-74.13664,0.399,0.296
31R055,P.S. 055 Henry M. Boehm,5,0,0,5,Elementary (K-5),600,0,1,0,R055,10,R055,564,207,5.4,42.1,3849028,26900.97,61,100,100,100,609,4.123711109,19.58762932,44.32989502,31.95876312,76.28865814,601.8110962,13.33333302,36.66666794,28.88888931,21.11111069,50,605.8936157,21.27659607,23.40425491,26.59574509,28.72340393,55.31914902,PK-5,"54 OSBORNE STREET, STATEN ISLAND NY 10312",40.536625,-74.163037,0.37,0.269
31R057,P.S. 057 Hubert H. Humphrey,6,0,0,6,Elementary (K-5),710,0,0,0,R057,100,R057,639,550,9.2,46,4991672,25770.08,93,100,100,100,585.9489746,50,18.36734772,25.51020432,6.122448921,31.63265228,589.6831665,44.5544548,33.66336823,9.900990486,11.88118839,21.78217888,585.7543945,58.77193069,21.92982483,13.15789509,6.140350819,19.29824638,PK-5,"140 PALMA DRIVE, STATEN ISLAND NY 10304",40.611136,-74.083799,0.868,0.893
31R068,Port Richmond School for Visionary Learning,2,0,0,2,Elementary (K-5),152,0,0,0,R066,10,R068,116,90,2,8,1212045,24337.51,100,,,,,,,,,,,,,,,,,,,,,,PK-2,"1625 FOREST AVENUE, STATEN IS NY 10302",40.624781,-74.142526,0.809,0.743
31R069,P.S. 069 Daniel D. Tompkins,4,0,0,4,Elementary (K-5),935,0,1,0,R069,100,R069,917,526,20.7,83.2,8870137,31978.47,63,100,100,100,597.234375,29.6875,21.09375,35.9375,13.28125,49.21875,603.4508667,17.34103966,26.58959579,32.94797516,23.12138748,56.06936264,604.6369019,18.45238113,30.3571434,25,26.19047546,51.19047546,PK-5,"144 KEATING PLACE, STATEN ISLAND NY 10314",40.59148,-74.157327,0.581,0.487
31R078,P.S. 78,4,0,0,4,Elementary (K-5),845,0,0,0,R014,100,R078,810,779,20,55,6034027,27051.93,89,100,90,90,583.583313,55.30303192,26.51515198,14.39393902,3.787878752,18.18181801,580.9312744,64.88549805,25.95419884,6.870229244,2.290076256,9.160305023,587.8120117,56.39097595,29.32330894,10.52631569,3.75939846,14.28571415,PK-5,"100 TOMPKINS AVENUE, STATEN ISLAND NY 10304",40.622415,-74.079228,0.95,0.946
31R861,Staten Island School of Civic Leadership,9,0,0,9,K-8,906,6,0,0.006622517,R861,100,R861,888,698,4.7,61.2,5912018,23164.61,86,100,92,100,595.7548828,30.3921566,26.47058868,32.35293961,10.78431416,43.13725662,601.6213379,20.38834953,27.18446541,25.24271774,27.18446541,52.42718506,600.836731,23.46938705,34.69387817,24.48979568,17.34693909,41.83673477,PK-8,"280 REGIS DRIVE, STATEN ISLAND NY 10314",40.62031,-74.164427,0.787,0.644
32K045,P.S./I.S. 045 Horace E. Greene,2,0,0,2,K-8,681,3,0,0.004405286,K045,20,K045,640,524,14,36,4246698,23086.43,73,38,63,88,588.5932007,45.76271057,18.64406776,28.81355858,6.779661179,35.59321976,588.9491577,40.67796707,35.59321976,15.25423717,8.474575996,23.72881317,593.2297363,41.89189148,28.37837791,21.62162209,8.108108521,29.72973061,PK-8,"84 SCHAEFER STREET, BROOKLYN NY 11207",40.686424,-73.91043,0.834,0.87
32K145,P.S. 145 Andrew Jackson,2,0,0,2,Elementary (K-5),576,0,0,0,K145,10,K145,530,485,8,39,3883825,25814.8,88,100,100,100,592.8915405,31.32530212,28.91566277,30.12048149,9.638554573,39.75903702,593.1195679,34.78260803,32.60869598,17.39130402,15.21739101,32.60869598,590.3191528,50,24.46808434,20.21276665,5.319149017,25.53191566,PK-5,"100 NOLL STREET, BROOKLYN NY 11206",40.701107,-73.932388,0.917,0.945
32K299,P.S. 299 Thomas Warren Field,6,0,0,6,Elementary (K-5),265,0,0,0,K299,10,K299,246,238,2,18,1870500,27907.23,96,,,,594.1764526,35.29411697,32.35293961,17.64705849,14.70588207,32.35293961,593.4545288,31.81818199,45.45454407,13.63636398,9.090909004,22.72727203,588.333313,63.33333206,23.33333397,13.33333302,0,13.33333302,PK-5,"88 WOODBINE STREET, BROOKLYN NY 11221",40.690755,-73.917899,0.95,0.922
75K141,P.S. K141,3,0,0,3,K-12,350,1,0,0.002857143,K002,100,,,,,,,,87,89,83,95,,,,,,,,,,,,,,,,,,,,,,,0.9,0.927
75K368,P.S. 368,9,0,0,9,K-12,237,1,0,0.004219409,K033,100,,,,,,,,87,100,100,100,,,,,,,,,,,,,,,,,,,,,,,0.937,0.947
75K370,P.S. 370,7,0,0,7,K-12,253,1,0,0.003952569,K370,10,,,,,,,,73,50,50,50,,,,,,,,,,,,,,,,,,,,,,,0.834,0.874
75M138,P.S. 138,3,0,0,3,K-12,611,0,0,0,M030,100,,,,,,,,50,63,63,63,,,,,,,,,,,,,,,,,,,,,,,0.926,0.944
75M811,P.S. M811 - Mickey Mantle School,9,0,1,8,K-8,373,0,0,0,M841,100,,,,,,,,49,100,90,90,,,,,,,,,,,,,,,,,,,,,,,0.898,0.925
75Q256,P.S. Q256,8,0,8,0,K-12,510,5,0,0.009803922,L001,100,,,,,,,,83,88,88,88,,,,,,,,,,,,,,,,,,,,,,,0.81,0.865
75R037,P.S. R037,5,0,1,4,K-12,389,0,0,0,R840,100,,,,,,,,75,100,78,78,,,,,,,,,,,,,,,,,,,,,,,0.802,0.815
75R373,P.S. R373,1,0,0,1,K-8,527,0,0,0,R040,20,,,,,,,,50,100,100,100,,,,,,,,,,,,,,,,,,,,,,,0.825,0.84
75X188,P.S. X188,4,0,0,4,K-12,468,3,0,0.006410256,X034,100,,,,,,,,76,82,82,82,,,,,,,,,,,,,,,,,,,,,,,0.91,0.94
01M019,P.S. 019 Asher Levy,,,,,Elementary (K-5),257,0,0,0,M019,100,M019,244,186,10,31,3128238,36838.61,95,86,86,86,600.9375,21.875,21.875,31.25,25,56.25,594.1613159,38.70967865,22.58064461,29.03225899,9.677419662,38.70967865,615.9230957,7.692307472,7.692307472,26.92307663,57.69230652,84.61538696,PK-5,"185 1 AVENUE, MANHATTAN NY 10003",40.730009,-73.984496,0.77,0.679
01M020,P.S. 020 Anna Silver,,,,,Elementary (K-5),497,0,0,0,M020,10,M020,463,334,19,28,3633140,24714.3,89,,,,588.0769043,46.15384674,29.4871788,19.23077011,5.128205299,24.35897446,594.763916,36.11111069,23.61111069,16.66666603,23.61111069,40.27777863,597.4031982,41.93548203,14.51612949,17.74193573,25.8064518,43.54838562,PK-5,"166 ESSEX STREET, MANHATTAN NY 10002",40.721305,-73.986312,0.736,0.8
01M034,P.S. 034 Franklin D. Roosevelt,,,,,K-8,333,4,0,0.012012012,M034,100,M034,320,312,10,26,2777390,29882.06,78,,,,589.0476074,47.61904907,26.19047546,21.4285717,4.761904716,26.19047546,586.3030396,51.51515198,42.42424393,0,6.060606003,6.060606003,586.666687,55.55555725,25.92592621,14.81481457,3.703703642,18.51851845,PK-8,"730 EAST 12 STREET, MANHATTAN NY 10009",40.726008,-73.975058,0.95,0.937
01M063,The STAR Academy - P.S.63,,,,,Elementary (K-5),203,0,0,0,M063,100,M063,177,147,11,9.9,1860705,32215.22,100,,,,602.1578979,21.05263138,10.52631569,42.10526276,26.31579018,68.42105103,603.043457,8.695652008,30.43478203,47.82608795,13.04347801,60.86956406,601.5,27.27272797,27.27272797,22.72727203,22.72727203,45.45454407,PK-5,"121 EAST 3 STREET, MANHATTAN NY 10009",40.72444,-73.986214,0.818,0.762
01M064,P.S. 064 Robert Simon,,,,,Elementary (K-5),245,0,0,0,M064,100,M064,210,192,8.7,17,1676691,29726.15,96,,,,591.625,41.66666794,20.83333397,33.33333206,4.166666508,37.5,594.5666504,33.33333206,26.66666603,23.33333397,16.66666603,40,590.1875,53.125,25,9.375,12.5,21.875,PK-5,"600 EAST 6 STREET, MANHATTAN NY 10009",40.72313,-73.981597,0.922,0.882
01M110,P.S. 110 Florence Nightingale,,,,,Elementary (K-5),379,0,0,0,M110,100,M110,349,218,11.7,13,2034094,20406.68,92,,,,619.9767456,6.976744175,0,23.2558136,69.7674408,93.02325439,613.7719116,10.52631569,19.29824638,15.78947353,54.38596344,70.17543793,613.6617432,17.64705849,8.823529243,20.58823586,52.94117737,73.52941132,PK-5,"285 DELANCY STREET, MANHATTAN NY 10002",40.7162,-73.9798,0.625,0.58
01M134,P.S. 134 Henrietta Szold,,,,,Elementary (K-5),297,0,0,0,M134,100,M134,277,254,7,28,2674147,33798.47,89,,,,592.2766113,40.42553329,23.40425491,31.9148941,4.255319118,36.17021179,589.1702271,51.06383133,12.76595783,12.76595783,23.40425491,36.17021179,582,64.70587921,5.882352829,27.45098114,1.960784316,29.41176414,PK-5,"293 EAST BROADWAY, MANHATTAN NY 10002",40.714248,-73.983854,0.919,0.901
01M142,P.S. 142 Amalia Castro,,,,,Elementary (K-5),340,0,0,0,M142,100,M142,308,299,13,23,3068717,28543.47,95,,,,595.1428833,21.4285717,32.1428566,39.2857132,7.142857075,46.42856979,585.1470337,50,32.35293961,14.70588207,2.941176414,17.64705849,590.9117432,38.23529434,29.41176414,29.41176414,2.941176414,32.35293961,PK-5,"100 ATTORNEY STREET, MANHATTAN NY 10002",40.718121,-73.984116,0.95,0.911
01M184,P.S. 184m Shuang Wen,,,,,K-8,684,6,0,0.00877193,M137,100,,,,,,,,92,83,100,92,612.7313232,1.49253726,16.41790962,34.3283577,47.76119232,82.08955383,611.0806274,8.064516068,20.96774101,22.58064461,48.38709641,70.96774292,625.5,2.083333254,6.25,22.91666603,68.75,91.66666412,PK-8,"327 CHERRY STREET, MANHATTAN NY 10002",40.711125,-73.985438,0.68,0.653
01M188,P.S. 188 The Island School,,,,,K-8,433,2,0,0.004618938,M188,100,M188,414,377,10.9,28,3497645,29106.77,86,100,100,100,593.3076782,30.76922989,33.33333206,33.33333206,2.56410265,35.89743423,592.8095093,21.4285717,57.1428566,19.04761887,2.380952358,21.4285717,592.2438965,36.5853653,41.46341324,17.07317162,4.878048897,21.95121956,PK-8,"442 EAST HOUSTON STREET, NEW YORK NY 10002",40.719888,-73.97738,0.921,0.95
01M315,The East Village Community School,,,,,Elementary (K-5),318,0,0,0,M061,100,M315,282,74,8,16,1861402,22229.01,93,,,,609.9755859,4.878048897,21.95121956,34.14634323,39.02439117,73.17073059,600.6875,15.625,37.5,31.25,15.625,46.875,616.7647095,2.941176414,17.64705849,26.47058868,52.94117737,79.41176605,PK-5,"610 EAST 12 STREET, MANHATTAN NY 10009",40.727537,-73.978254,0.27,0.369
01M361,The Children's Workshop School,,,,,Elementary (K-5),315,0,0,0,M061,100,M361,279,132,5,19.7,2478296,23438.84,65,100,100,100,599.68573,20,22.8571434,45.7142868,11.4285717,57.1428566,596.9642944,25,32.1428566,35.7142868,7.142857075,42.8571434,610.5925903,3.703703642,29.62962914,33.33333206,33.33333206,66.66666412,PK-5,"610 EAST 12 STREET, MANHATTAN NY 10009",40.727537,-73.978254,0.457,0.505
01M363,Neighborhood School,,,,,Elementary (K-5),304,0,0,0,M063,100,M363,286,128,6,18,2124797,23340.16,96,,,,591.375,37.5,37.5,12.5,12.5,25,598.8571167,14.28571415,0,71.42857361,14.28571415,85.7142868,597.25,31.25,25,25,18.75,43.75,PK-5,"121 EAST 3 STREET, MANHATTAN NY 10009",40.72444,-73.986214,0.438,0.478
02M001,P.S. 001 Alfred E. Smith,,,,,Elementary (K-5),318,0,0,0,M001,100,M001,294,232,2,30,2752421,27514.81,79,,,,599.888916,31.11111069,17.77777863,11.11111069,40,51.11111069,603.3018799,22.64151001,20.75471687,18.86792374,37.73584747,56.60377502,604.125,27.08333397,16.66666603,22.91666603,33.33333206,56.25,PK-5,"8 HENRY STREET, MANHATTAN NY 10038",40.71255,-73.997478,0.808,0.843
02M002,P.S. 002 Meyer London,,,,,Elementary (K-5),552,0,0,0,M002,100,M002,530,513,5,47,4084563,27460.96,68,,,,607.9365234,4.761904716,12.6984129,50.79365158,31.74603081,82.53968048,611.3826904,12.34567928,9.876543045,28.39506149,49.38271713,77.77777863,608.7327881,14.65517235,22.41379356,23.27586174,39.65517426,62.93103409,PK-5,"122 HENRY STREET, MANHATTAN NY 10002",40.712907,-73.991523,0.95,0.91
02M011,P.S. 011 William T. Harris,,,,,Elementary (K-5),923,0,0,0,M011,100,M011,905,266,13,49.2,4995109,19354.15,88,100,100,100,613.0228882,12.97709942,9.160305023,25.95419884,51.90839767,77.8625946,611.0402832,11.40939617,12.75167751,26.1744957,49.66442871,75.83892822,612.8103638,19.5402298,12.64367771,16.66666603,51.14942551,67.81609344,PK-5,"320 WEST 21 STREET, MANHATTAN NY 10011",40.744186,-74.000743,0.3,0.344
02M033,P.S. 033 Chelsea Prep,,,,,Elementary (K-5),650,0,0,0,M033,100,M033,614,297,20.2,19,3203379,18586.41,51,,,,606.888916,22.22222137,12.9629631,25.92592621,38.88888931,64.81481171,610.3099976,31,8,8,53,61,615.611084,23.33333397,7.777777672,12.22222233,56.66666794,68.8888855,PK-5,"281 9 AVENUE, MANHATTAN NY 10001",40.749014,-74.000238,0.482,0.499
02M040,P.S. 040 Augustus Saint-Gaudens,,,,,Elementary (K-5),673,0,1,0,M040,100,M040,637,60,7.7,32.2,3551822,19502.85,83,,,,618.0744629,2.127659559,8.510638237,23.40425491,65.95744324,89.36170197,615.168396,5.263157845,12.6315794,23.15789413,58.94736862,82.10526276,623.8695679,1.086956501,4.347826004,29.347826,65.21739197,94.56521606,PK-5,"320 EAST 20TH STREET, MANHATTAN NY 10003",40.735328,-73.981536,0.1,0.164
02M041,P.S. 041 Greenwich Village,,,,,Elementary (K-5),694,0,0,0,M041,100,M041,658,57,5,42,3793273,20710.65,93,100,89,100,616.6551514,3.448275805,8.045976639,29.88505745,58.62068939,88.50574493,619.4180298,3.278688431,7.377048969,18.85245895,70.49180603,89.34426117,617.6381226,6.666666508,10.47619057,31.4285717,51.42856979,82.85713959,PK-5,"116 WEST 11 STREET, MANHATTAN NY 10011",40.73545,-73.999094,0.094,0.078
02M042,P.S. 042 Benjamin Altman,,,,,Elementary (K-5),653,0,0,0,M042,10,M042,611,474,11.7,40,4428346,24802.31,100,100,85,85,610.116272,9.302325249,19.7674427,30.2325573,40.6976738,70.93022919,612.1771851,6.32911396,18.98734093,27.84810066,46.83544159,74.68354797,622.7063599,3.174603224,11.90476227,21.4285717,63.49206161,84.92063141,PK-5,"71 HESTER STREET, MANHATTAN NY 10002",40.716126,-73.990826,0.763,0.824
02M051,P.S. 051 Elias Howe,,,,,Elementary (K-5),453,0,0,0,M338,100,M051,385,243,6.2,28,2888921,22988.48,73,,,,598.8518677,25.92592621,24.07407379,27.77777863,22.22222137,50,598.2631836,29.82456207,26.31579018,19.29824638,24.56140327,43.85964966,594.6724243,48.27586365,20.6896553,13.79310322,17.24137878,31.03448296,PK-5,"525 WEST 44TH STREET, MANHATTAN NY 10036",40.761487,-73.995825,0.594,0.602
02M077,P.S. 77 Lower Lab School,,,,,Elementary (K-5),358,0,1,0,M198,100,M077,358,20,5.4,13,1511578,17681.45,94,,,,626.828125,0,0,18.75,81.25,100,628.888916,0,3.174603224,6.349206448,90.47618866,96.82539368,636.0877075,0,0,7.017543793,92.98245239,100,K-5,"1700 3 AVENUE, MANHATTAN NY 10128",40.785018,-73.95042,0.056,0.097
02M089,P.S. 89,,,,,Elementary (K-5),433,0,0,0,M089,100,M089,397,76,5.9,24,2550260,21073.15,61,,,,612.5516968,1.724137902,6.896551609,55.17241287,36.20689774,91.37931061,615.6315918,2.631578922,18.42105293,25,53.94736862,78.94736481,623.2727051,4.545454502,6.818181992,13.63636398,75,88.63636017,PK-5,"201 WARREN STREET, MANHATTAN NY 10282",40.71701,-74.013967,0.201,0.074
02M111,P.S. 111 Adolph S. Ochs,,,,,Elementary (K-5),395,0,0,0,M111,100,M111,349,225,8,26,2833732,25955.36,71,100,70,80,603.1764526,27.45098114,19.6078434,21.56862831,31.37254906,52.94117737,591.3585205,45.28302002,24.52830124,9.433961868,20.75471687,30.18867874,597.6037598,35.84905624,20.75471687,20.75471687,22.64151001,43.39622498,PK-5,"440 WEST 53 STREET, MANHATTAN NY 10019",40.76588,-73.989776,0.623,0.629
02M116,P.S. 116 Mary Lindley Murray,,,,,Elementary (K-5),539,0,0,0,M116,100,M116,492,183,5,34,3079968,22565.64,86,100,100,100,606.2839355,9.876543045,19.75308609,44.44444275,25.92592621,70.37036896,606.2285767,14.28571415,21.4285717,31.4285717,32.8571434,64.2857132,608.211792,23.52941132,11.76470566,24.70588303,40,64.70587921,PK-5,"210 EAST 33 STREET, MANHATTAN NY 10016",40.744511,-73.977906,0.364,0.353
02M124,P.S. 124 Yung Wing,,,,,Elementary (K-5),724,0,0,0,M124,100,M124,668,367,7,44,4382461,21749.33,100,,,,619.7113647,1.030927777,1.030927777,41.23711395,56.70103073,97.93814087,617.1182861,1.075268865,6.451612949,27.95698929,64.51612854,92.47312164,617.0977173,3.007518768,14.28571415,29.32330894,53.38345718,82.70676422,PK-5,"40 DIVISION STREET, MANHATTAN NY 10002",40.715097,-73.996017,0.564,0.658
02M126,P.S. 126 Jacob August Riis,,,,,K-8,784,5,0,0.006377551,M126,100,M126,755,602,11,49,5433970,22576.09,67,100,100,100,598.8571167,26.98412704,22.22222137,23.80952454,26.98412704,50.79365158,605.9365234,12.6984129,28.5714283,19.04761887,39.68254089,58.73015976,611.6025391,8.974358559,16.66666603,30.76922989,43.58974457,74.35897064,PK-8,"80 CATHERINE STREET, MANHATTAN NY 10038",40.710651,-73.99742,0.8,0.78
